stop_lat,wheelchair_boarding,stop_code,stop_lon,stop_timezone,stop_url,parent_station,stop_desc,stop_name,location_type,stop_id,zone_id
43.019489,0,2241,-81.2165,,,,,Huron & Highbury Ave NS EB - #2241,0,340,
42.997275,0,2125,-81.299525,,,,,Wonderland & Sarnia Rd FS NB - #2125,0,342,
42.926036,0,672,-81.215134,,,,,Exeter & Wellington Rd EB - #672,0,349,
42.994791,0,1790,-81.1617,,,,,Trafalgar & Bancroft Rd WB - #1790,0,2318,
42.992012,0,1791,-81.171074,,,,,Trafalgar & Clarke Rd EB - #1791,0,2319,
42.990542,0,1788,-81.1767,,,,,Trafalgar & Atkinson WB - #1788,0,2316,
42.989742,0,1789,-81.179139,,,,,Trafalgar & Balfour Place EB - #1789,0,2317,
42.96964,0,1786,-81.212344,,,,,Thompson & King Edward Ave EB - #1786,0,2312,
42.969612,0,1787,-81.213279,,,,,Thompson & King Edward Ave WB - #1787,0,2313,
42.969463,0,1784,-81.214921,,,,,Thompson & Gladstone Ave WB - #1784,0,2310,
42.963296,0,760,-81.284909,,,,,Gardenwood & Berkshire Dr SB - #760,0,299,
42.994128,0,743,-81.203191,,,,,Florence & Highbury Ave WB - #743,0,296,
42.987914,0,2166,-81.22394,,,,,York & Rectory St WB - #2166,0,297,
42.993134,0,418,-81.170342,,,,,Clarke & Trafalgar NS SB - #418,0,294,
42.99049,0,829,-81.195112,,,,,Hale & Brydges St. NB - #829,0,295,
42.990805,0,830,-81.195321,,,,,Hale & Brydges St. SB - #830,0,291,
43.025446,0,1140,-81.281591,,,,,Masonville Mall & Stop # 1 - #1140,0,1996_merged_921643,
42.984805,0,1431,-81.287837,,,,,Proudfoot & Oxford St SB - #1431,0,274,
42.992891,0,1435,-81.219093,,,,,Quebec & Dundas St NB - #1435,0,276,
43.002589,0,1217,-81.214663,,,,,Mornington & Salisbury St EB - #1217,0,277,
43.002796,0,1218,-81.215322,,,,,Mornington & Salisbury St WB - #1218,0,278,
42.9924,0,595,-81.219503,,,,,Dundas & Quebec WB - #595,0,279,
42.956452,0,1971,-81.229685,,,,,Wellington & Waterman Ave NB - #1971,0,738,
42.964565,0,1728,-81.290752,,,,,Springbank & Berkshire Dr FS 1 EB - #1728,0,2268,
42.966105,0,1729,-81.28766,,,,,Springbank & Berkshire Dr FS 2 EB - #1729,0,2269,
42.998875,0,1722,-81.144742,,,,,Sovereign & Trafalgar St. SB - #1722,0,2262,
43.046634,0,1723,-81.24536,,,,,South Wenige & Father Dalton Ave WB - #1723,0,2263,
42.991413,0,1719,-81.140522,,,,,Sovereign & Neptune Cres NS 2 SB - #1719,0,2260,
42.994375,0,1720,-81.1422,,,,,Sovereign & Tartan SB - #1720,0,2261,
43.048447,0,1726,-81.243185,,,,,South Wenige & Savannah & Nicole WB - #1726,0,2266,
43.048287,0,1727,-81.25293,,,,,South Wenige & Sunningdale Rd NB - #1727,0,2267,
43.046064,0,1724,-81.251868,,,,,South Wenige & Marigold St NB - #1724,0,2264,
43.051188,0,1725,-81.243668,,,,,South Wenige & Savannah Dr SB - #1725,0,2265,
43.015448,0,1983,-81.276724,,,,,Western & Ambleside Dr NB - #1983,0,2442,
43.018039,0,1984,-81.278181,,,,,Western & Ambleside Dr SB - #1984,0,2443,
42.985598,0,1960,-81.245841,,,,,Wellington & Queens Ave SB - #1960,0,2440,
42.981302,0,865,-81.224568,,,,,Hamilton & Mamelon St EB - #865,0,1781,
43.010811,0,1988,-81.277338,,,,,Western & Elgin Dr NB - #1988,0,2447,
42.964112,0,1985,-81.224824,,,,,Westminster & Baseline Rd NB - #1985,0,2444,
42.964256,0,1986,-81.22495,,,,,Westminster & Baseline Rd SB - #1986,0,2445,
42.995638,0,1991,-81.267264,,,,,Western & Essex St NB - #1991,0,2448,
42.996215,0,1992,-81.27057,,,,,Western & Hollywood Cres NB - #1992,0,2449,
43.012631,0,1817,-81.273926,,,,,UWO-Perth Dr & UH SB - #1817,0,108,
42.962039,0,190,-81.226664,,,,,Base Line & Fairview Ave NS EB - #190,0,102,
42.971777,0,935,-81.238772,,,,,High & Grand Ave NB - #935,0,103,
42.961443,0,1859,-81.226937,,,,,Victoria Hospital & Baseline Rd Ent WB - #1859,0,101,
43.013585,0,1816,-81.274229,,,,,UWO-Perth Dr & UH NB - #1816,0,107,
42.995977,0,1494,-81.253301,,,,,Richmond & Oxford St  NB - #1494,0,104,
43.001527,0,1464,-81.256205,,,,,Richmond & Cheapside St NB - #1464,0,105,
43.016547,0,1273,-81.180449,,,,,Oxford & Clarke Rd FS 1 EB - #1273,0,2046,
43.01769,0,1274,-81.176831,,,,,Oxford & Clarke Rd NS 1 WB - #1274,0,2047,
43.028653,0,1246,-81.193699,,,,,Oakville & Tilipe Rd NB - #1246,0,2044,
43.022426,0,2410,-81.159591,,,,,Oxford & Veterans Memorial Parkway EB - #2410,0,2045,
42.94715,0,1239,-81.269199,,,,,Notre Dame & Ensign Dr SB - #1239,0,2042,
43.029372,0,1244,-81.19657,,,,,Oakville & Chippewa Dr NB - #1244,0,2043,
42.990022,0,1238,-81.161463,,,,,Noel & Bow St EB - #1238,0,2040,
43.017621,0,1275,-81.176624,,,,,Oxford & Clarke Rd FS 2 EB - #1275,0,2048,
43.016714,0,2257,-81.180353,,,,,Oxford & Clarke Rd NS 3 WB - #2257,0,2049,
43.025452,0,1144,-81.281354,,,,,Masonville Terminal & Stop #5 - #1144,0,150_merged_921646,
43.046989,0,2435,-81.253405,,,,,Thistlewood & South Wenige EB - #2435,0,3513,
43.044845,0,2433,-81.249525,,,,,South Wenige & McCallum WB - #2433,0,3515,
43.050511,0,2434,-81.247662,,,,,Sunningdale & Gough EB - #2434,0,3514,
42.983509,0,408,-81.247159,,,,,Clarence & King St NB - #408,0,99,
42.962686,0,240,-81.285332,,,,,Berkshire & Gardenwood NB - #240,0,98,
42.959479,0,448,-81.331786,,,,,Commissioners & Boler WB - #448,0,91,
42.96345,0,1755,-81.293513,,,,,Springbank & Wonderland Rd WB - #1755,0,90,
42.951835,0,808,-81.340118,,,,,Griffith & Byron Baseline Rd FS 1 WB - #808,0,92,
42.953654,0,275,-81.331251,,,,,Boler & Byron Baseline NB - #275,0,95,
42.944079,0,810,-81.329386,,,,,Griffith & Boler Rd EB - #810,0,94,
42.96374,0,1754,-81.292535,,,,,Springbank & Wonderland Rd EB - #1754,0,97,
42.990376,0,1137,-81.164965,,,,,Marconi & Noel Ave. SB - #1137,0,1991,
42.959872,0,630,-81.256607,,,,,Edward & Baseline SB - #630,0,1622,
42.986971,0,1138,-81.152882,,,,,Marconi & Railton WB - #1138,0,1993,
42.946509,0,628,-81.23719,,,,,Eden & Nixon Ave WB - #628,0,1620,
42.992638,0,1139,-81.167302,,,,,Marconi & Trafalgar St. SB - #1139,0,1994,
42.962174,0,637,-81.256749,,,,,Edward & Highway SB - #637,0,1629,
42.978546,0,871,-81.200567,,,,,Hamilton & Pine Lawn Ave EB - #871,0,1787,
43.008251,0,2258,-81.209422,,,,,Oxford & Highbury - #2258,0,2864,
43.001678,0,,-81.25635,,,,,Richmond & Cheapside - #,0,2868,
42.962455,0,86,-81.219962,,,,,Adelaide & Thompson Rd FS 4 SB - #86,0,1199,
42.965996,0,85,-81.221812,,,,,Adelaide & Thompson Rd FS 2 SB - #85,0,1198,
42.993791,0,76,-81.234088,,,,,Adelaide & Rosedale St SB - #76,0,1191,
43.002171,0,79,-81.238249,,,,,Adelaide & St. James St SB - #79,0,1193,
43.002071,0,78,-81.238032,,,,,Adelaide & St. James St NB - #78,0,1192,
42.972963,0,81,-81.224651,,,,,Adelaide & Terrace St NB - #81,0,1195,
43.030415,0,80,-81.252305,,,,,Adelaide & Tennant NB - #80,0,1194,
42.964134,0,83,-81.220869,,,,,Adelaide & Thompson Rd FS 3 SB - #83,0,1196,
42.981498,0,837,-81.191082,,,,,Hale & Magee St. SB - #837,0,1759,
42.992419,0,836,-81.196006,,,,,Hale & Graydon St. NB - #836,0,1758,
42.979462,0,835,-81.19096,,,,,Hale & Ellsworth Ave SB - #835,0,1757,
42.994041,0,834,-81.196761,,,,,Hale & Eastman Ave. NB - #834,0,1756,
42.997836,0,833,-81.19854,,,,,Hale & Dundas St.  NB - #833,0,1755,
42.995742,0,832,-81.197646,,,,,Hale & Doulton St. SB - #832,0,1754,
42.996102,0,831,-81.197705,,,,,Hale & Doulton St. NB - #831,0,1753,
42.994478,0,828,-81.197049,,,,,Hale & Beattie St. SB - #828,0,1752,
42.93825,0,60,-81.209242,,,,,Adelaide & Osgoode Dr SE Leg NB - #60,0,1177,
42.977503,0,59,-81.226792,,,,,Adelaide & Nelson St SB - #59,0,1176,
42.977567,0,58,-81.226683,,,,,Adelaide & Nelson St NB - #58,0,1175,
42.997642,0,57,-81.23587,,,,,Adelaide & McMahen NB - #57,0,1174,
42.970708,0,56,-81.223681,,,,,Adelaide & Maud St NB - #56,0,1173,
42.992328,0,54,-81.233229,,,,,Adelaide & Lorne Ave NB - #54,0,1172,
42.982516,0,53,-81.228761,,,,,Adelaide & Little Simcoe NB - #53,0,1171,
42.965978,0,2185,-81.221654,,,,,Adelaide & Leathorne St FS 3 NB - #2185,0,1170,
42.942427,0,62,-81.213344,,,,,Adelaide & Osgoode Dr - NE Leg NB - #62,0,1179,
42.941834,0,61,-81.213008,,,,,Adelaide & Osgoode Dr - NW Leg SB - #61,0,1178,
42.959719,0,185,-81.256187,,,,,Base Line & Edward St WB - #185,0,1284,
42.960366,0,187,-81.248749,,,,,Base Line & Elworthy Ave WB - #187,0,1287,
42.96029,0,186,-81.248913,,,,,Base Line & Elworthy Ave EB - #186,0,1286,
42.960015,0,182,-81.252743,,,,,Base Line & Cathcart St WB - #182,0,1281,
42.959932,0,181,-81.253319,,,,,Base Line & Cathcart St EB - #181,0,1280,
42.959601,0,184,-81.25735,,,,,Base Line & Dundee Place EB - #184,0,1283,
42.962147,0,189,-81.226993,,,,,Base Line & Fairview Ave FS 1 WB - #189,0,1289,
42.962145,0,188,-81.225577,,,,,Base Line & Fairview Ave FS EB - #188,0,1288,
42.945118,0,579,-81.244214,,,,,Dundalk & Hines Cres NB - #579,0,1579,
42.990129,0,576,-81.226942,,,,,Dundas & Hewitt St EB - #576,0,1578,
42.938413,0,170,-81.204312,,,,,Ashbury & Surrey Cres - N Leg NB - #170,0,689,
42.937358,0,169,-81.202382,,,,,Ashbury & Millbank WB - #169,0,688,
42.942113,0,1174,-81.202548,,,,,Millbank & Ashbury Ave SB - #1174,0,685,
42.94404,0,1181,-81.20437,,,,,Millbank & Dudley Cres (N Leg) NB - #1181,0,684,
43.007235,0,569,-81.166554,,,,,Dundas & Forest Lawn Ave EB - #569,0,1571,
42.941025,0,1176,-81.201199,,,,,Millbank & Bexhill Drive (N Leg) SB - #1176,0,686,
42.952091,0,1186,-81.20796,,,,,Millbank & Parliament Cr E Leg EB - #1186,0,681,
42.949798,0,1193,-81.210517,,,,,Millbank & Shaftsbury Ave W NB - #1193,0,680,
42.944955,0,1189,-81.211803,,,,,Millbank & Southdale Road NS 2 SB - #1189,0,683,
42.950104,0,1192,-81.205462,,,,,Millbank & Shaftsbury Ave E SB - #1192,0,682,
42.932497,0,652,-81.186907,,,,,Enterprise & Midpark Road EB - #652,0,623,
42.931561,0,653,-81.189731,,,,,Enterprise & Pond Mills Rd EB - #653,0,622,
42.994256,0,131,-81.312906,,,,,Aldersbrook & Lawson SB - #131,0,1240,
42.932011,0,1413,-81.191569,,,,,Pond Mills & Enterprise Dr SB - #1413,0,621,
42.937239,0,2262,-81.191571,,,,,Pond Mills & Bradley Ave FS 2 SB - #2262,0,620,
43.001538,0,114,-81.314869,,,,,Aldersbrook & Ardsley NB - #114,0,1223,
43.008857,0,134,-81.320511,,,,,Aldersbrook & Rexway Rd NB - #134,0,1243,
43.016074,0,112,-81.31129,,,,,Aldersbrook & Acorn Cres FS EB - #112,0,1220,
42.934325,0,296,-81.240431,,,,,Bradley & Jalna Blvd W EB - #296,0,1370,
42.9342,0,2206,-81.232633,,,,,Bradley & White Oaks P.S. EB - #2206,0,1373,
42.934247,0,2326,-81.224411,,,,,Bradley & Wellington Rd NS EB - #2326,0,1372,
43.019388,0,301,-81.227379,,,,,Briarhill & Melsandra Ave FS SB - #301,0,1375,
43.017058,0,300,-81.226215,,,,,Briarhill & Huron SB - #300,0,1374,
42.972448,0,304,-81.253366,,,,,Bruce & Wortley EB - #304,0,1377,
42.972934,0,303,-81.251357,,,,,Bruce & Marley Place EB - #303,0,1376,
42.990779,0,306,-81.194754,,,,,Brydges & Hale St WB - #306,0,1379,
42.990508,0,305,-81.195478,,,,,Brydges & Hale St EB - #305,0,1378,
42.93861,0,2623,-81.306893,,,,,Cranbrook & Roberston Place EB - #2623,0,3834,
42.940907,0,2621,-81.303501,,,,,Cranbrook & Barclay NB - #2621,0,3835,
42.944139,0,2625,-81.302879,,,,,Cranbrook & Viscount NB - #2625,0,3836,
42.944816,0,2633,-81.298567,,,,,Viscount & Dunsmoor EB - #2633,0,3837,
42.932583,0,2618,-81.316308,,,,,Colonel Talbot & Raleigh NB - #2618,0,3830,
42.936291,0,2619,-81.317145,,,,,Colonel Talbot & Southdale NB - #2619,0,3831,
42.936735,0,2629,-81.311914,,,,,Southdale & Pomeroy EB - #2629,0,3832,
42.937358,0,2631,-81.30857,,,,,Tillman & Southdale NB - #2631,0,3833,
42.997744,0,287,-81.153783,,,,,Bonaventure & Trafalgar SB - #287,0,378,
43.012632,0,998,-81.240522,,,,,Huron & Adelaide St NS 1WB - #998,0,370,
43.021158,0,2259,-81.299333,,,,,Pinnacle Parkway & Fanshawe Park Rd NB - #2259,0,373,
43.008817,0,135,-81.320612,,,,,Aldersbrook & Rexway Rd SB - #135,0,1244,
42.969382,0,1783,-81.21484,,,,,Thompson & Gladstone Ave EB - #1783,0,2309,
42.995911,0,138,-81.314341,,,,,Aldersbrook & Springett Crt SB - #138,0,1247,
43.044314,0,1773,-81.25747,,,,,Thistlewood  & Blackwater EB - #1773,0,2301,
42.981194,0,1763,-81.250809,,,,,Talbot & York St. NB - #1763,0,2300,
42.969255,0,1779,-81.216183,,,,,Thompson & Chesterfield Ave EB - #1779,0,2305,
42.968937,0,1781,-81.219792,,,,,Thompson & Emerson Ave EB - #1781,0,2307,
42.969298,0,1780,-81.21699,,,,,Thompson & Chesterfield Ave WB - #1780,0,2306,
42.960233,0,2537,-81.334417,,,,,Commissioners & Halls Mills SB - #2537,0,3748,
42.961279,0,2539,-81.33756,,,,,Commissioners at Stephen SB - #2539,0,3747,
42.963298,0,2535,-81.344232,,,,,Commissioners & Grandview EB - #2535,0,3744,
42.962395,0,2538,-81.341114,,,,,Commissioners & Reynolds SB - #2538,0,3745,
42.965489,0,2533,-81.351525,,,,,Commissioners & Chestnut SB - #2533,0,3742,
42.963767,0,2534,-81.347056,,,,,Commissioners & Chestnut Hill 2 SB - #2534,0,3743,
42.969093,0,2547,-81.361089,,,,,Riverbend & Shore SB - #2547,0,3740,
42.969417,0,2548,-81.355801,,,,,Shore & Kains EB - #2548,0,3741,
43.011058,0,2224,-81.20068,,,,,Fanshawe College Stop 3 - #2224,0,245,
43.008655,0,1770,-81.188486,,,,,Third & Culver  SB - #1770,0,246,
42.995586,0,1333,-81.252763,,,,,Oxford & Richmond St EB - #1333,0,241,
43.008538,0,1309,-81.208231,,,,,Oxford & Highbury Ave FS EB - #1309,0,243,
43.009832,0,2313,-81.184816,,,,,Culver & Culver Court WB - #2313,0,249,
43.011,0,2331,-81.200713,,,,,Fanshawe College Stop 1 - #2331,0,248,
42.973233,0,1735,-81.273206,,,,,Springbank & Greenside Ave EB - #1735,0,2275,
42.954791,0,1734,-81.315584,,,,,Springbank & Commissioners Rd W WB - #1734,0,2274,
42.971006,0,1737,-81.277714,,,,,Springbank & Greenwood Ave EB - #1737,0,2277,
42.97379,0,1736,-81.272368,,,,,Springbank & Greenside Ave WB - #1736,0,2276,
42.97028,0,1731,-81.279181,,,,,Springbank & Chessington Ave EB - #1731,0,2271,
42.964413,0,1730,-81.291526,,,,,Springbank & Berkshire Dr WB - #1730,0,2270,
42.954695,0,1733,-81.3155,,,,,Springbank & Commissioners Rd W EB - #1733,0,2273,
42.971031,0,1732,-81.27803,,,,,Springbank & Chelsea Ave WB - #1732,0,2272,
42.959062,0,1739,-81.302965,,,,,Springbank & Hillcrest Dr WB - #1739,0,2279,
42.958905,0,1738,-81.303107,,,,,Springbank & Hillcrest Dr EB - #1738,0,2278,
42.965611,0,2007,-81.225135,,,,,Westminster & Whetter Ave NB - #2007,0,2459,
42.967501,0,2292,-81.224994,,,,,Westminster & Thompson Rd NB - #2292,0,2458,
42.996341,0,2002,-81.274171,,,,,Western & Platts Lane SB - #2002,0,2455,
42.996613,0,2001,-81.274624,,,,,Western & Platts Lane NB - #2001,0,2454,
42.999141,0,2004,-81.276379,,,,,Western & Sarnia Rd FS 2 SB - #2004,0,2457,
43.001194,0,2003,-81.276529,,,,,Western & Sarnia Rd FS 1 SB - #2003,0,2456,
43.002615,0,2291,-81.276459,,,,,Western & Phillip Aziz FS NB - #2291,0,2451,
42.995916,0,1993,-81.269341,,,,,Western & Hollywood Crt SB - #1993,0,2450,
43.000406,0,2290,-81.276131,,,,,Western & Phillip Aziz NS NB - #2290,0,2452,
43.038522,0,1807,-81.244558,,,,,Trossacks & Fanshawe Park Rd NB - #1807,0,179,
42.959796,0,2015,-81.261022,,,,,Wharncliffe & Base Line Rd NB - #2015,0,176,
42.948526,0,1880,-81.27111,,,,,Viscount & Notre Dame WB - #1880,0,174,
42.939725,0,1669,-81.273089,,,,,Southdale & Andover Dr.  WB - #1669,0,173,
42.946412,0,2017,-81.25812,,,,,Wharncliffe & Belmont Dr SB - #2017,0,171,
42.956949,0,2312,-81.260082,,,,,COMMISSIONERS & WHARNCLIF - #2312,0,170,
43.015335,0,1277,-81.185152,,,,,Oxford & Clarke Rd FS WB - #1277,0,2051,
43.015147,0,1276,-81.185342,,,,,Oxford & Clarke Rd NS EB - #1276,0,2050,
43.006137,0,1278,-81.216628,,,,,Oxford & Clemens St EB - #1278,0,2052,
43.019425,0,1301,-81.170703,,,,,Oxford & GM Main Gate (Signals) WB - #1301,0,2057,
43.019868,0,1302,-81.16872,,,,,Oxford & GM Main Gate FS (Signals) - #1302,0,2056,
43.021161,0,1313,-81.164167,,,,,Oxford & Industrial Rd FS EB - #1313,0,2059,
43.01888,0,1300,-81.172206,,,,,Oxford & GM Main Gate NS (Signals) - #1300,0,2058,
42.961323,0,475,-81.201406,,,,,Commissioners & Pondmills NS EB - #475,0,1500,
42.929847,0,1935,-81.219712,,,,,Wellington & Dearness Dr NB - #1935,0,653,
42.963056,0,2453,-81.188761,,,,,Commissioners & Highbury EB - #2453,0,3525,
43.025452,0,1144,-81.281354,,,,,Masonville Terminal Stop #5 - #1144,0,150_merged_921653,
42.999916,0,1121,-81.308442,,,,,Limberlost & Ardsley Rd FS SB - #1121,0,1977,
42.999973,0,1120,-81.308371,,,,,Limberlost & Ardsley Rd NS 1 NB - #1120,0,1976,
43.002366,0,1119,-81.309254,,,,,Limberlost & Ardsley Rd NS SB - #1119,0,1975,
42.95324,0,1886,-81.268281,,,,,Viscount & Tavistock Rd 1 SB - #1886,0,2405,
43.001686,0,1118,-81.309274,,,,,Limberlost & Ardsley Rd NS 3 NB - #1118,0,1974,
42.956574,0,2478,-81.170588,,,,,Lighthouse & White Sands Dr. NB - #2478,0,1973,
42.960028,0,2477,-81.171739,,,,,Lighthouse & Reardon Blvd NB - #2477,0,1972,
43.003609,0,1117,-81.292931,,,,,Lawson & Wychwood  Park Ave WB - #1117,0,1971,
43.003581,0,1116,-81.292807,,,,,Lawson & Wychwood  EB - #1116,0,1970,
43.00137,0,1112,-81.29941,,,,,Lawson & Lonsdale WB - #1112,0,1968,
43.002563,0,1113,-81.29633,,,,,Lawson & Longbow Rd EB - #1113,0,1969,
42.946669,0,626,-81.234692,,,,,Eden & Easy St EB - #626,0,1618,
42.946758,0,627,-81.234301,,,,,Eden & Easy St WB - #627,0,1619,
42.988001,0,623,-81.234357,,,,,Dundas & William St EB - #623,0,1616,
42.988167,0,624,-81.234044,,,,,Dundas & William St. WB - #624,0,1617,
42.985046,0,620,-81.245045,,,,,Dundas & Wellington St. WB - #620,0,1614,
43.001279,0,1111,-81.299444,,,,,Lawson & Lonsdale Dr EB - #1111,0,1967,
43.007611,0,1104,-81.269936,,,,,UWO-Lambton Dr & Middlesex/Uni Dr NB - #1104,0,1960,
42.964875,0,1105,-81.262683,,,,,Langarth & Holborn Ave WB - #1105,0,1961,
42.98556,0,616,-81.242727,,,,,Dundas & Waterloo St NS EB - #616,0,1610,
43.006422,0,617,-81.169406,,,,,Dundas & Wavell St FS EB - #617,0,1611,
42.980241,0,,-81.252791,,,,,Ridout & York - #,0,2873,
42.981498,0,,-81.248476,,,,,Richmond & York - #,0,2872,
42.982406,0,2344,-81.243932,,,,,Wellington & York - #2344,0,2879,
42.97858,0,850,-81.200065,,,,,Hamilton & East St - Ealing P.S. WB - #850,0,1768,
42.980238,0,851,-81.21243,,,,,Hamilton & Egerton St EB - #851,0,1769,
42.992916,0,838,-81.196312,,,,,Hale & Montague Place SB - #838,0,1760,
42.988161,0,839,-81.194023,,,,,Hale & Stevenson Ave. NB - #839,0,1761,
42.974851,0,848,-81.174527,,,,,Hamilton & Braesyde Ave NS EB - #848,0,1766,
42.986756,0,842,-81.193479,,,,,Hale & Trafalgar St. SB - #842,0,1764,
42.974058,0,847,-81.171792,,,,,Hamilton & Braesyde Ave FS EB - #847,0,1765,
42.968432,0,1974,-81.234085,,,,,Wellington & Wellington Cres SB - #1974,0,1142,
42.970156,0,1930,-81.236499,,,,,Wellington & Colgrove Pl SB - #1930,0,1140,
43.036537,0,688,-81.24922,,,,,Fanshawe & Freemont Ave FS EB - #688,0,1146,
43.037458,0,692,-81.246181,,,,,Fanshawe & Glengarry Ave EB - #692,0,1147,
42.939015,0,1255,-81.21095,,,,,Osgoode & Kinburn Cres E Leg WB - #1255,0,1144,
43.03602,0,690,-81.250953,,,,,Fanshawe & Freemont Ave NS EB - #690,0,1145,
43.007986,0,1284,-81.274751,,,,,UWO-Oxford Dr & Elgin Drive SB - #1284,0,1149,
42.938117,0,1256,-81.212643,,,,,Osgoode & Kinburn Cres W Leg WB - #1256,0,692,
42.937771,0,1253,-81.214978,,,,,Osgoode & Fitzroy Place WB - #1253,0,693,
43.000215,0,545,-81.191631,,,,,Dundas & Burdick Place EB - #545,0,1544,
43.000275,0,546,-81.192075,,,,,Dundas & Burdick St WB - #546,0,1545,
43.003464,0,543,-81.180178,,,,,Dundas & Beatrice St EB - #543,0,1542,
43.003435,0,544,-81.180831,,,,,Dundas & Beatrice St WB - #544,0,1543,
42.995119,0,541,-81.210088,,,,,Dundas & Ashland Ave FS WB - #541,0,1540,
42.93894,0,2070,-81.218681,,,,,Willow & Osgoode  Dr. WB - #2070,0,695,
42.93475,0,294,-81.221688,,,,,Bradley & Dearness Dr WB - #294,0,699,
43.008743,0,547,-81.161078,,,,,Dundas & Carlyle St EB - #547,0,1548,
42.984245,0,548,-81.247868,,,,,Dundas & Clarence St EB - #548,0,1549,
43.007963,0,1821,-81.265357,,,,,UWO-University Dr & Sunset Dr WB - #1821,0,763,
43.003609,0,1514,-81.257279,,,,,Richmond & Victoria St NB - #1514,0,760,
42.976569,0,867,-81.186135,,,,,Hamilton & Meadowlilly Rd FS EB - #867,0,1783,
42.97729,0,868,-81.191664,,,,,Hamilton & Norlan Ave EB - #868,0,1784,
43.018073,0,1516,-81.274989,,,,,Richmond & Westchester Dr. NB - #1516,0,765,
42.974211,0,323,-81.245171,,,,,Carfrae & Carfrae St NB - #323,0,1388,
42.974234,0,324,-81.245255,,,,,Carfrae & Carfrae St SB - #324,0,1389,
42.953422,0,317,-81.327798,,,,,Byron Baseline & Colville Blvd WB - #317,0,1384,
42.987537,0,321,-81.299896,,,,,Capulet Lane & Blacksmith SB - #321,0,1386,
42.985177,0,322,-81.298375,,,,,Capulet Lane & Capulet Walk SB - #322,0,1387,
42.989796,0,307,-81.197944,,,,,Brydges & Highbury Ave 2  EB - #307,0,1380,
42.963624,0,312,-81.203471,,,,,Burlington & Cairn St EB - #312,0,1382,
42.963336,0,313,-81.201285,,,,,Burlington & Pond Mills Rd  EB - #313,0,1383,
42.928555,0,2628,-81.308121,,,,,Settlement Trail & Settlement Place WB - #2628,0,3827,
42.929645,0,2627,-81.305672,,,,,Settlement Trail & Pioneer Parkway SB - #2627,0,3826,
42.933011,0,2630,-81.307843,,,,,Tillman & Settlement Trail SB - #2630,0,3825,
42.936809,0,2632,-81.308815,,,,,Tillman & Southdale FS SB - #2632,0,3824,
42.938708,0,2624,-81.307824,,,,,Cranbrook & Schraeder WB - #2624,0,3823,
42.938746,0,2622,-81.305251,,,,,Cranbrook & Birchmount WB - #2622,0,3822,
42.940934,0,2620,-81.303746,,,,,Cranbrook & Barclay SB - #2620,0,3821,
42.954056,0,2616,-81.226738,,,,,Parkwood Hospital & Mental Health Building - #2616,0,3820,
42.928515,0,2617,-81.315311,,,,,Colonel Talbot & 3278 Colonel Talbot NB - #2617,0,3829,
42.926609,0,2626,-81.311243,,,,,Pack & Settlement Trail WB - #2626,0,3828,
42.982536,0,1086,-81.248652,,,,,King & Richmond EB - #1086,0,655_merged_921645,
43.01838,0,526,-81.266234,,,,,Doon & Windemere Rd NB - #526,0,369,
43.006319,0,142,-81.275351,,,,,UWO-Lambton Dr & Oxford Dr WB - #142,0,367,
43.009924,0,267,-81.306375,,,,,Blackacres & Wonderland WB - #267,0,362,
43.000438,0,2249,-81.302044,,,,,Lawson & Blue Forest Rd WB - #2249,0,360,
43.007368,0,2107,-81.304338,,,,,Wonderland & Gainsborough Rd NB - #2107,0,361,
42.998523,0,1899,-81.173288,,,,,Wavell & Clarke Rd WB - #1899,0,386,
43.022923,0,2549,-81.260715,,,,,Doon & Muskoka Cres FS NB - #2549,0,3750,
42.963376,0,2551,-81.293335,,,,,SPRINGBANK AT WONDERLAND - #2551,0,3753,
42.961399,0,459,-81.337636,,,,,Commissioners & Halls Mills Rd FS WB - #459,0,258,
42.96313,0,1582,-81.318102,,,,,Riverside & Hartson Rd E Leg WB - #1582,0,2194,
42.963005,0,1584,-81.32587,,,,,Riverside & Hartson Rd W Leg WB - #1584,0,2195,
42.983125,0,1587,-81.26699,,,,,Riverside & Mt. Pleasant  WB - #1587,0,2196,
42.98263,0,1588,-81.271756,,,,,Riverside & Murdock St EB - #1588,0,2197,
42.995433,0,1334,-81.253762,,,,,Oxford & Richmond St WB - #1334,0,253,
43.011165,0,2226,-81.199804,,,,,Fanshawe College Stop 5 - #2226,0,251,
42.984031,0,1364,-81.292317,,,,,Oxford & Wonderland Rd WB - #1364,0,257,
42.985491,0,1328,-81.287381,,,,,Oxford & Proudfoot Lane WB - #1328,0,255,
42.978628,0,1590,-81.283336,,,,,Riverside & Old Riverside Dr WB - #1590,0,2200,
42.963806,0,1593,-81.329802,,,,,Riverside & Sanatorium Rd WB - #1593,0,2202,
42.982691,0,1602,-81.25983,,,,,Riverside & Wilson Ave EB - #1602,0,2209,
42.99757,0,1913,-81.176573,,,,,Wavell & Merlin Cr WB - #1913,0,2428,
42.996819,0,1914,-81.178916,,,,,Wavell & Merlin Cr NS EB - #1914,0,2429,
43.002382,0,1905,-81.167767,,,,,Wavell & Dundas St FS 3 SB - #1905,0,2420,
43.00596,0,1906,-81.169634,,,,,Wavell & Dundas St FS 1 SB - #1906,0,2421,
42.99618,0,1907,-81.18115,,,,,Wavell & Edmonton St EB - #1907,0,2422,
42.996438,0,1908,-81.180556,,,,,Wavell & Edmonton St WB - #1908,0,2423,
42.992032,0,2208,-81.191809,,,,,Brydges & Graydon St WB - #2208,0,2424,
42.991842,0,1290,-81.26563,,,,,Oxford & Fernely Ave. WB - #1290,0,900,
42.993259,0,1911,-81.190115,,,,,Wavell & Kiwanis Park Dr WB - #1911,0,2426,
42.997589,0,1912,-81.176181,,,,,Wavell & Merlin Cr FS EB - #1912,0,2427,
42.981597,0,2240,-81.237487,,,,,Horton & Colborne St EB - #2240,0,1848,
42.959545,0,2016,-81.261148,,,,,Wharncliffe & Base Line Rd SB - #2016,0,169,
42.957944,0,180,-81.276488,,,,,Base Line & Beachwood WB - #180,0,164,
42.963473,0,647,-81.273514,,,,,Emery & Phyllis  St EB - #647,0,165,
42.951921,0,487,-81.302897,,,,,Cranbrook & Commissioners NB - #487,0,161,
42.95305,0,474,-81.296777,,,,,Commissioners & Nottinghill Rd.FS EB - #474,0,162,
43.021463,0,2082,-81.254986,,,,,Windermere & Doon Dr NS 1 WB - #2082,0,2518,
43.017334,0,2085,-81.269007,,,,,Windermere & Tallwood EB - #2085,0,2519,
43.020432,0,2304,-81.258271,,,,,Windermere & Doon Dr FS 1 EB - #2304,0,2515,
43.020433,0,2080,-81.258534,,,,,Windermere & Doon Dr NS 2 WB - #2080,0,2516,
43.021409,0,2081,-81.254996,,,,,Windermere & Doon Dr FS 2 EB - #2081,0,2517,
43.009705,0,2071,-81.245297,,,,,William & Regent St SB - #2071,0,2510,
43.02298,0,2078,-81.249576,,,,,Windermere & Adelaide NS 2 EB - #2078,0,2511,
43.022906,0,2077,-81.250098,,,,,Windermere & Adelaide FS 1 WB - #2077,0,2512,
43.022076,0,2076,-81.252742,,,,,Windermere & Adelaide NS 1 EB - #2076,0,2513,
42.941877,0,1681,-81.242985,,,,,Southdale & Jalna Blvd FS EB - #1681,0,1090,
42.942115,0,1673,-81.24042,,,,,Southdale & Dulaney Dr. EB - #1673,0,1091,
43.033142,0,2447,-81.222247,,,,,Highbury & Rembrandt Valley SB - #2447,0,1816,
43.028693,0,2235,-81.220077,,,,,Highbury & Townsend Dr SB - #2235,0,1817,
43.035601,0,903,-81.223379,,,,,Highbury & Edgevalley Road SB - #903,0,1810,
43.02419,0,906,-81.217828,,,,,Highbury & Fuller St SB - #906,0,1811,
43.0218,0,912,-81.21664,,,,,Highbury & Hillcrest Ave SB - #912,0,1812,
43.039184,0,914,-81.225139,,,,,Highbury & Killarney Rd SB - #914,0,1813,
42.961578,0,930,-81.236142,,,,,High & Baseline Rd NB - #930,0,1818,
42.963971,0,931,-81.236823,,,,,High & Chester St NB - #931,0,1819,
42.945932,0,1697,-81.197587,,,,,Southdale & Pond Mills Road EB - #1697,0,1107,
42.934543,0,297,-81.222187,,,,,Bradley & Wellington Rd FS EB - #297,0,1099,
42.985855,0,615,-81.242283,,,,,Dundas & Waterloo St WB - #615,0,1609,
42.985819,0,614,-81.241849,,,,,Dundas & Waterloo St FS EB - #614,0,1608,
43.00389,0,1123,-81.308979,,,,,Limberlost & Fairfax Crt SB - #1123,0,1979,
43.003497,0,1122,-81.308926,,,,,Limberlost & Fairfax Ct NB - #1122,0,1978,
43.001256,0,603,-81.188536,,,,,Dundas & Saul St WB - #603,0,1601,
43.000664,0,602,-81.190041,,,,,Dundas & Saskatoon EB - #602,0,1600,
43.008122,0,606,-81.163976,,,,,Dundas & Speight Blvd NS WB - #606,0,1603,
43.007731,0,605,-81.164719,,,,,Dundas & Speight Blvd EB - #605,0,1602,
42.983046,0,611,-81.252526,,,,,Dundas & Talbot St FS WB - #611,0,1605,
43.007614,0,607,-81.165815,,,,,Dundas & Speight Blvd FS WB - #607,0,1604,
43.001338,0,613,-81.187674,,,,,Dundas & Vancouver EB - #613,0,1607,
43.002352,0,612,-81.184676,,,,,Dundas & Third St WB - #612,0,1606,
43.016058,0,2084,-81.273063,,,,,Windermere & Richmond St WB - #2084,0,809,
43.017966,0,1523,-81.275139,,,,,Richmond & Wyndham Gate SB - #1523,0,808,
43.023201,0,1485,-81.28093,,,,,Richmond & Jacksway Cres SB - #1485,0,803,
43.029285,0,700,-81.273907,,,,,Fanshawe & Jennifer Rd 2 WB - #700,0,800,
43.019685,0,1518,-81.278143,,,,,Richmond & Western Rd FS 1 SB - #1518,0,806,
43.018984,0,1519,-81.276938,,,,,Richmond & Western Rd FS 2 SB - #1519,0,805,
43.021409,0,1508,-81.279995,,,,,Richmond & Shavian Blvd SB - #1508,0,804,
43.011805,0,2307,-81.243115,,,,,Adelaide & Huron St SB - #2307,0,2846,
42.935958,0,2203,-81.21024,,,,,Bradley & Adelaide NS 2 EB - #2203,0,1102,
42.985155,0,,-81.288054,,,,,Proudfoot & Oxford - #,0,2844,
42.991425,0,2690,-81.232891,,,,,Adelaide & Dufferin - #2690,0,2845,
43.014321,0,2187,-81.321366,,,,,Aldersbrook Gt & Aldersbrook Rd NB - #2187,0,2842,
43.014303,0,2188,-81.321415,,,,,Aldersbrook Gt & Aldersbrook Rd SB - #2188,0,2843,
42.932331,0,2243,-81.24271,,,,,Jalna & Conway Dr.N Leg NB - #2243,0,2840,
42.996427,0,2267,-81.153485,,,,,Railton & Daybreak Dr SB - #2267,0,2841,
42.977934,0,856,-81.195434,,,,,Hamilton & Giles St WB - #856,0,1774,
42.977431,0,859,-81.191874,,,,,Hamilton & Hale St WB - #859,0,1777,
42.97548,0,858,-81.178124,,,,,Hamilton & Gore Rd EB - #858,0,1776,
42.980285,0,852,-81.211777,,,,,Hamilton & Egerton St WB - #852,0,1770,
42.977873,0,855,-81.195945,,,,,Hamilton & Giles St EB - #855,0,1773,
42.979726,0,854,-81.208234,,,,,Hamilton & Elm St WB - #854,0,1772,
42.981723,0,863,-81.226416,,,,,Hamilton & Little Grey St WB - #863,0,1779,
42.974289,0,20,-81.225234,,,,,Adelaide & Ada NB - #20,0,608,
42.980363,0,38,-81.227992,,,,,Adelaide & Hill St SB - #38,0,1158,
42.958331,0,276,-81.332375,,,,,Boler & Commissioners NS NB - #276,0,1155,
42.938285,0,1250,-81.209233,,,,,Osgoode & Adelaide St. NS EB - #1250,0,1154,
43.011313,0,400,-81.179156,,,,,Clarke & Culver SB - #400,0,1156,
43.011824,0,1772,-81.190053,,,,,Third & Oxford FS 1 SB - #1772,0,1151,
42.997734,0,414,-81.172518,,,,,Clarke & Royal Cr - N Leg NB - #414,0,1153,
42.996122,0,412,-81.171725,,,,,Clarke & Royal Cr - S Leg NB - #412,0,1152,
43.00455,0,550,-81.176374,,,,,Dundas & Clarke Rd EB - #550,0,1551,
42.984406,0,549,-81.247067,,,,,Dundas & Clarence St WB - #549,0,1550,
43.004671,0,551,-81.176482,,,,,Dundas & Clarke Rd WB - #551,0,1553,
42.986632,0,553,-81.239501,,,,,Dundas & Colborne St WB - #553,0,1555,
42.986356,0,552,-81.239964,,,,,Dundas & Colborne St EB - #552,0,1554,
43.004954,0,555,-81.174887,,,,,Dundas & Eastwood NS EB - #555,0,1557,
42.993689,0,554,-81.214982,,,,,Dundas & Dorinda St WB - #554,0,1556,
43.005433,0,557,-81.173168,,,,,Dundas & Eastwood FS EB - #557,0,1559,
43.005664,0,556,-81.172855,,,,,Dundas & Eastwood WB - #556,0,1558,
42.982041,0,846,-81.228328,,,,,Hamilton & Adelaide St WB - #846,0,57,
42.977777,0,861,-81.194291,,,,,Hamilton & Highbury Ave WB - #861,0,56,
42.977498,0,860,-81.193215,,,,,Hamilton & Highbury Ave EB - #860,0,51,
42.981991,0,845,-81.228831,,,,,Hamilton & Adelaide St EB - #845,0,50,
42.979208,0,785,-81.169434,,,,,Gore & Firestone Blvd WB - #785,0,53,
42.973015,0,878,-81.168216,,,,,Hamilton & River Run Terrace EB - #878,0,52,
42.983016,0,1812,-81.187912,,,,,Tweedsmuir & Ellesworth WB - #1812,0,55,
42.978142,0,909,-81.19467,,,,,Highbury & Hamilton Rd NB - #909,0,200,
42.960272,0,331,-81.253127,,,,,Cathcart & Baseline NB - #331,0,1397,
43.007857,0,330,-81.161588,,,,,Carlyle & Tiffany Dr NB - #330,0,1396,
43.005159,0,329,-81.16109,,,,,Carlyle & Speight Cr - South Leg NB - #329,0,1395,
43.006153,0,328,-81.161129,,,,,Carlyle & Speight Cr - North Leg NB - #328,0,1394,
43.003383,0,327,-81.1596,,,,,Carlyle & Caprice Cr NS NB - #327,0,1392,
42.972115,0,326,-81.244794,,,,,Carfrae & Woodland Pl SB - #326,0,1391,
42.971887,0,325,-81.244635,,,,,Carfrae & Grand Ave NB - #325,0,1390,
42.926019,0,2610,-81.278341,,,,,Wonderland & Wharncliffe FS 2 NB - #2610,0,3813,
43.012396,0,2615,-81.331691,,,,,Fanshawe & Dalmagarry WB - #2615,0,3816,
43.012144,0,2614,-81.331911,,,,,Fanshawe & Dalmagarry EB - #2614,0,3817,
42.933423,0,2611,-81.160603,,,,,Cheese Factory & Global SB - #2611,0,3815,
42.933104,0,2612,-81.167782,,,,,Commerce & Global NB - #2612,0,3818,
42.935706,0,2613,-81.16844,,,,,Commerce & Max Brose NB - #2613,0,3819,
42.982623,0,1086,-81.248685,,,,,King & Richmond EB - #1086,0,655_merged_921652,
42.988158,0,2388,-81.314946,,,,,Beaverbrook & Wild Rose WB - #2388,0,3475,
42.982955,0,1570,-81.26652,,,,,Riverside & Cavendish Cres. EB - #1570,0,2183,
42.982751,0,1569,-81.271188,,,,,Riverside & Britannia Ave WB - #1569,0,2182,
42.977418,0,1568,-81.286814,,,,,Riverside & Braemar Cres WB - #1568,0,2181,
42.977428,0,1567,-81.286644,,,,,Riverside & Braemar Cres E Leg EB - #1567,0,2180,
43.011146,0,40,-81.24272,,,,,Adelaide & Huron St SB - #40,0,229,
43.034328,0,32,-81.254625,,,,,Adelaide & Fanshawe Pk Rd SB - #32,0,228,
43.00647,0,24,-81.240181,,,,,Adelaide & Cheapside St NB - #24,0,227,
42.989214,0,27,-81.231686,,,,,Adelaide & Dundas St NB - #27,0,225,
42.968564,0,82,-81.222737,,,,,Adelaide & Thompson Rd NB - #82,0,223,
42.955404,0,2264,-81.198939,,,,,Pond Mills & Deveron Cres S Leg NB - #2264,0,222,
42.977825,0,970,-81.251008,,,,,Horton & Ridout St EB - #970,0,221,
42.959332,0,2194,-81.259828,,,,,Base Line & Wharncliffe Rd EB - #2194,0,220,
42.998691,0,1609,-81.169127,,,,,Royal & Castle Dr EB - #1609,0,2213,
42.983031,0,1607,-81.269268,,,,,Riverside & Woodward Ave WB - #1607,0,2212,
42.982944,0,1606,-81.268758,,,,,Riverside & Woodward Ave EB - #1606,0,2211,
42.982815,0,1603,-81.259629,,,,,Riverside & Wilson Ave WB - #1603,0,2210,
42.998722,0,1610,-81.169297,,,,,Royal & Castle Dr WB - #1610,0,2214,
43.020779,0,1618,-81.203558,,,,,Sandford & Beckworth Ave  NB - #1618,0,2219,
42.999937,0,1617,-81.222027,,,,,Salisbury & Quebec St EB - #1617,0,2218,
42.981865,0,2118,-81.29174,,,,,Wonderland & Oxford St FS SB - #2118,0,151,
42.986076,0,1959,-81.245798,,,,,Wellington & Queens Ave NB - #1959,0,2439,
42.963094,0,2133,-81.293081,,,,,Wonderland & Springbank Dr SB - #2133,0,152,
42.940606,0,1706,-81.258723,,,,,Southdale & Wharncliffe Rd NS EB - #1706,0,155,
42.947484,0,1999,-81.292059,,,,,Westmount Mall Stop 3 - #1999,0,154,
42.963571,0,648,-81.272846,,,,,Emery & Phyllis  St WB - #648,0,157,
42.932154,0,2062,-81.22323,,,,,White Oaks Mall Stop #3 - #2062,0,156,
42.99567,0,1918,-81.183263,,,,,Wavell & Winnipeg Blvd WB - #1918,0,2433,
42.995389,0,1917,-81.18397,,,,,Wavell & Winnipeg Blvd EB - #1917,0,2432,
42.994928,0,1916,-81.185574,,,,,Wavell & Vancouver St. EB - #1916,0,2431,
42.994743,0,1915,-81.186617,,,,,Wavell & Saskatoon St WB - #1915,0,2430,
42.98049,0,1947,-81.242866,,,,,Wellington & Horton St FS NB - #1947,0,2437,
42.987394,0,1936,-81.246459,,,,,Wellington & Dufferin St NB - #1936,0,2436,
42.948492,0,2428,-81.227842,,,,,Wellington & Creston FS 2 NB - #2428,0,2435,
42.951127,0,2067,-81.234432,,,,,Wilkins & Chiddington Gate SB - #2067,0,2509,
42.950843,0,2066,-81.234488,,,,,Wilkins & Chiddington Gate NB - #2066,0,2508,
42.932409,0,2733,-81.223496,,,,,White Oaks Mall Stop #4 - #2733,0,2507,
42.982171,0,2057,-81.26279,,,,,Wharncliffe & Wyatt St SB - #2057,0,2506,
42.944526,0,2056,-81.257707,,,,,Wharncliffe & Westdale Ave SB - #2056,0,2505,
42.96766,0,2055,-81.261717,,,,,Wharncliffe & Tecumseh Ave SB - #2055,0,2504,
42.967274,0,2054,-81.261544,,,,,Wharncliffe & Tecumseh Ave NB - #2054,0,2503,
42.994169,0,2052,-81.265968,,,,,Wharncliffe & Saunby St NB - #2052,0,2501,
42.979557,0,2051,-81.262542,,,,,Wharncliffe & The Ridgeway SB - #2051,0,2500,
43.032086,0,891,-81.268232,,,,,Hastings & Donnybrook Rd NB - #891,0,1807,
43.037031,0,890,-81.270715,,,,,Hastings & Chambers Ave SB - #890,0,1806,
43.037134,0,889,-81.270738,,,,,Hastings & Chambers Ave NB - #889,0,1805,
42.987393,0,2575,-81.311797,,,,,Beaverbrook & Oakcrossing W Leg WB - #2575,0,3781,
42.942997,0,2577,-81.295103,,,,,Farnham & Farnham Grove SB - #2577,0,3787,
42.97947,0,885,-81.207224,,,,,Hamilton & Tennyson St EB - #885,0,1800,
42.943113,0,2578,-81.287228,,,,,McMaster & Wonderland - #2578,0,3788,
43.034144,0,2233,-81.269371,,,,,Hastings & Virginia Rd SB - #2233,0,1809,
43.034071,0,892,-81.269268,,,,,Hastings & Virginia Rd NB - #892,0,1808,
43.02174,0,520,-81.265561,,,,,Doon & Caithness Ct EB - #520,0,1524,
42.967366,0,1087,-81.210686,,,,,King Edward & Scenic Dr NB - #1087,0,1948,
42.967282,0,1088,-81.210728,,,,,King Edward & Scenic Dr SB - #1088,0,1949,
43.022039,0,521,-81.259615,,,,,Doon & Muskoka Cres NB - #521,0,1525,
42.964385,0,1079,-81.20833,,,,,King Edward & Chippendale Cr N Leg - #1079,0,1942,
42.967729,0,2334,-81.212464,,,,,King Edward & Dieppe St. SB - #2334,0,1943,
42.967584,0,2333,-81.212023,,,,,King Edward & Dieppe St. NB - #2333,0,1940,
42.964116,0,1078,-81.208154,,,,,King Edward & Chippendale Cr S Leg - #1078,0,1941,
42.977778,0,1084,-81.294035,,,,,Kingsway & Oakridge Dr EB - #1084,0,1946,
42.977689,0,1085,-81.294624,,,,,Kingsway & Oakridge WB - #1085,0,1947,
42.963123,0,1082,-81.207767,,,,,King Edward & Eagle Drive SB - #1082,0,1944,
42.966097,0,1083,-81.209213,,,,,King Edward & Echo Pl SB - #1083,0,1945,
42.992941,0,1493,-81.251948,,,,,Richmond & Mill St SB - #1493,0,818,
42.99159,0,1484,-81.25119,,,,,Richmond & Hyman St SB - #1484,0,819,
43.007727,0,1820,-81.26561,,,,,UWO-University Dr & Sunset Dr EB - #1820,0,810,
43.008211,0,1459,-81.260527,,,,,Richmond & Broughdale Ave SB - #1459,0,811,
43.007167,0,1482,-81.259424,,,,,Richmond & Huron St SB - #1482,0,812,
43.00587,0,1507,-81.258632,,,,,Richmond & Regent St SB - #1507,0,813,
43.003846,0,1515,-81.257557,,,,,Richmond & Victoria St SB - #1515,0,814,
42.999325,0,1477,-81.255246,,,,,Richmond & Grosvenor St SB - #1477,0,815,
42.997724,0,1487,-81.254361,,,,,Richmond & St. James St SB - #1487,0,816,
43.022231,0,519,-81.263841,,,,,Doon & Angus Rd EB - #519,0,1523,
42.946947,0,629,-81.231417,,,,,Eden & Verulam St EB - #629,0,1621,
42.984883,0,,-81.245441,,,,,Dundas & Wellington - #,0,2856,
42.95806,0,466,-81.326845,,,,,Commissioners & Lynden Cr EB - #466,0,1490,
42.958091,0,468,-81.326569,,,,,Commissioners & Lynden Cr 2 WB - #468,0,1492,
42.956894,0,469,-81.261913,,,,,Commissioners & McGregor WB - #469,0,1493,
42.963507,0,2215,-81.18508,,,,,Commissioners & Meadowlilly Rd EB - #2215,0,1494,
42.963598,0,2216,-81.186234,,,,,Commissioners & Meadowlilly Rd WB - #2216,0,1495,
42.95727,0,470,-81.324072,,,,,Commissioners & Nashua Ave EB - #470,0,1496,
42.956628,0,471,-81.322018,,,,,Commissioners & North EB - #471,0,1497,
42.956876,0,472,-81.322416,,,,,Commissioners & North St. WB - #472,0,1498,
42.952527,0,473,-81.299502,,,,,Commissioners & Nottinghill Rd NS EB - #473,0,1499,
42.970163,0,634,-81.257901,,,,,Edward & Elmwood SB - #634,0,1626,
43.005616,0,754,-81.308209,,,,,Gainsborough & Limberlost Rd EB - #754,0,1700,
43.006182,0,755,-81.307312,,,,,Gainsborough & Limberlost Rd WB - #755,0,1701,
43.006225,0,756,-81.306097,,,,,Gainsborough & Wonderland Rd EB - #756,0,1702,
43.006698,0,757,-81.304967,,,,,Gainsborough & Wonderland Rd FS 1 WB - #757,0,1703,
43.005918,0,2343,-81.307592,,,,,Gainsborough & Wonderland Rd FS 2 WB - #2343,0,1704,
42.967875,0,2272,-81.280991,,,,,Ridgewood & Kernohan Pkwy WB - #2272,0,1706,
42.966547,0,762,-81.283639,,,,,Gardenwood & Ridgewood Cr W Leg EB - #762,0,1707,
42.967144,0,763,-81.282587,,,,,Gardenwood & Ridgewood Cr W Leg 2 WB - #763,0,1708,
42.965989,0,764,-81.28491,,,,,Gardenwood & Ridgewood Cr W Leg 4 WB - #764,0,1709,
42.995466,0,,-81.298931,,,,,Sarnia & Wonderland - #,0,427,
43.035213,0,2352,-81.26481,,,,,Phillbrook & Billybrook Cres (W Leg - #2352,0,1128,
43.01492,0,1378,-81.274939,,,,,UWO-Perth Dr & Windermere Rd NB - #1378,0,1120,
43.014975,0,1379,-81.275094,,,,,UWO-Perth Dr & Windermere Rd SB - #1379,0,1121,
42.987043,0,2106,-81.294428,,,,,Wonderland & Farrah Rd NS 1 SB - #2106,0,1123,
42.962572,0,2198,-81.28437,,,,,Berkshire & Gardenwood FS SB - #2198,0,1125,
43.042753,0,1808,-81.245913,,,,,Trossacks & Grenfell Dr NB - #1808,0,1126,
43.025666,0,1141,-81.281723,,,,,Masonville Mall & Stop #2 - #1141,0,149_merged_921647,
42.941369,0,1680,-81.251878,,,,,Southdale & Homeview WB - #1680,0,1018,
42.940992,0,1709,-81.255824,,,,,Southdale & Wharncliffe Rd NS WB - #1709,0,1019,
42.94239,0,1693,-81.239148,,,,,Southdale & Nixon Ave FS 2 WB - #1693,0,1014,
42.942263,0,1674,-81.240731,,,,,Southdale & Dulaney Dr. WB - #1674,0,1015,
42.941979,0,1675,-81.244486,,,,,Southdale & Dundalk Dr 1. WB - #1675,0,1016,
42.941779,0,1676,-81.246883,,,,,Southdale & Dundalk Dr 2. WB - #1676,0,1017,
42.942679,0,1204,-81.227602,,,,,Montgomery & Southdale Road NB - #1204,0,1010,
42.943186,0,1701,-81.230062,,,,,Southdale & Verulam St WB - #1701,0,1011,
42.942993,0,1678,-81.232317,,,,,Southdale & Easy St WB - #1678,0,1012,
42.942523,0,1692,-81.237558,,,,,Southdale & Nixon Ave FS 1 WB - #1692,0,1013,
43.007774,0,125,-81.319768,,,,,Aldersbrook & Gablewood S Leg SB - #125,0,1234,
43.003132,0,126,-81.315752,,,,,Aldersbrook & Gainsborough NB - #126,0,1235,
43.003719,0,127,-81.316164,,,,,Aldersbrook & Gainsborough SB - #127,0,1236,
43.006761,0,128,-81.318598,,,,,Aldersbrook & Hawthorne NB - #128,0,1237,
42.994024,0,121,-81.311112,,,,,Aldersbrook & Brandy Lane NB - #121,0,1230,
42.999184,0,122,-81.315359,,,,,Aldersbrook & Brunswick NB - #122,0,1231,
42.999267,0,123,-81.31545,,,,,Aldersbrook & Brunswick SB - #123,0,1232,
43.007907,0,124,-81.319789,,,,,Aldersbrook & Gablewood NB - #124,0,1233,
43.006554,0,129,-81.318479,,,,,Aldersbrook & Hawthorne SB - #129,0,1238,
42.994294,0,130,-81.312784,,,,,Aldersbrook & Lawson NB - #130,0,1239,
42.958416,0,2605,-81.27099,,,,,Baseline & Cotswold Gate WB - #2605,0,3809,
43.018166,0,2601,-81.22686,,,,,Briarhill & Melsandra FS 2 SB - #2601,0,3805,
42.934185,0,2597,-81.229978,,,,,Bradley & Jalna NS E Leg EB - #2597,0,3804,
43.01016,0,2600,-81.18933,,,,,Third & Oxford FS 2 SB - #2600,0,3801,
42.936613,0,2596,-81.280747,,,,,Wonderland & Power Centre Driveway - #2596,0,3800,
43.002839,0,2599,-81.295755,,,,,Lawson & Longbow WB - #2599,0,3803,
42.925966,0,2598,-81.228609,,,,,Jalna & Archer FS SW Leg SB - #2598,0,3802,
42.955138,0,1411,-81.198965,,,,,Pond Mills & Deveron Cres S Leg SB - #1411,0,994,
42.949311,0,1414,-81.195525,,,,,Pond Mills & Millers Rd  SB - #1414,0,997,
42.984173,0,1363,-81.29128,,,,,Oxford & Wonderland Rd EB - #1363,0,238,
42.967775,0,84,-81.222568,,,,,Adelaide & Thompson Rd FS 1 SB - #84,0,234,
42.961968,0,514,-81.1952,,,,,Deveron & Commissioners Rd SB - #514,0,235,
42.95237,0,318,-81.339405,,,,,Byron Baseline & Griffith EB - #318,0,237,
43.005866,0,25,-81.240088,,,,,Adelaide & Cheapside St SB - #25,0,230,
42.990215,0,73,-81.232309,,,,,Adelaide & Queens Ave SB - #73,0,231,
42.988343,0,28,-81.231467,,,,,Adelaide & Dundas St SB - #28,0,232,
42.979733,0,897,-81.195733,,,,,Highbury & Calvin St SB - #897,0,990,
42.957486,0,1401,-81.199719,,,,,Pond Mills & Banbury Rd SB - #1401,0,993,
42.948943,0,1628,-81.234219,,,,,Sandringham & Wilkins St. WB - #1628,0,2228,
42.994976,0,1645,-81.300882,,,,,Sarnia & Thistledown Way WB - #1645,0,2229,
42.948212,0,1626,-81.231745,,,,,Sandringham & Verulam WB - #1626,0,2226,
42.948826,0,1627,-81.234216,,,,,Sandringham & Wilkins St. SB - #1627,0,2227,
43.023417,0,1624,-81.204959,,,,,Sandford & Huron St NS SB - #1624,0,2224,
42.9482,0,1625,-81.23162,,,,,Sandringham & Verulam St. EB - #1625,0,2225,
43.016776,0,2229,-81.201699,,,,,Fanshawe College Blvd & Cheapside SB - #2229,0,2222,
43.015489,0,2231,-81.198462,,,,,Fanshawe College Blvd & Fleming Dr SB - #2231,0,2223,
43.021116,0,1619,-81.203822,,,,,Sandford & Beckworth Ave  SB - #1619,0,2220,
43.026168,0,1620,-81.2047,,,,,Sandford & Bentley Dr SB - #1620,0,2221,
43.01807,0,1093,-81.244059,,,,,Kipps & Adelaide St EB - #1093,0,1,
42.98418,0,2115,-81.292694,,,,,Wonderland & Oxford St FS NB - #2115,0,146,
42.962777,0,2195,-81.288488,,,,,Berkshire & Berkshire Place NB - #2195,0,144,
42.964403,0,2132,-81.293102,,,,,Wonderland & Springbank Dr NB - #2132,0,145,
42.940725,0,1707,-81.259235,,,,,Southdale & Wharncliffe Rd FS WB - #1707,0,142,
42.947407,0,1998,-81.292334,,,,,Westmount Mall Stop 2 - #1998,0,143,
42.983354,0,610,-81.251419,,,,,Dundas & Talbot St NS WB - #610,0,140,
42.93137,0,2060,-81.222855,,,,,White Oaks Mall Stop #1 - #2060,0,141,
42.945718,0,1684,-81.200797,,,,,Southdale & Koru Crt WB - #1684,0,999,
43.008818,0,510,-81.26958,,,,,UWO-Perth Dr & Middlesex Dr NB - #510,0,148,
42.945995,0,1698,-81.196964,,,,,Southdale & Pond Mills Road WB - #1698,0,998,
42.97274,0,1412,-81.209805,,,,,Pond Mills & Thompson St  NB - #1412,0,2089,
42.970378,0,1399,-81.204489,,,,,Pond Mills & Ailsa Pl SB - #1399,0,2082,
42.956785,0,1400,-81.199411,,,,,Pond Mills & Banbury Rd NB - #1400,0,2083,
42.995535,0,1393,-81.274696,,,,,Platts Lane & Trott Dr NB - #1393,0,2080,
42.995009,0,1394,-81.274594,,,,,Platts Lane & Trott Dr SB - #1394,0,2081,
42.967599,0,1408,-81.202236,,,,,Pond Mills & Cleveland Ave SB - #1408,0,2086,
42.962133,0,1409,-81.200663,,,,,Pond Mills & Commissioners Rd NB - #1409,0,2087,
42.963757,0,1406,-81.201037,,,,,Pond Mills & Burlinton Gate NB - #1406,0,2084,
42.96746,0,1407,-81.202057,,,,,Pond Mills & Cleveland Ave NB - #1407,0,2085,
43.001489,0,2148,-81.291671,,,,,Wychwood & Leyton Cres FS 2 NB - #2148,0,2538,
43.001191,0,2149,-81.291636,,,,,Wychwood & Leyton Cres SB - #2149,0,2539,
42.988327,0,2141,-81.270649,,,,,Woodward & Cambridge St SB - #2141,0,2532,
42.986836,0,2142,-81.269791,,,,,Woodward & Edinburgh St NB - #2142,0,2533,
42.988255,0,2140,-81.270527,,,,,Woodward & Cambridge St NB - #2140,0,2531,
42.984812,0,2145,-81.269559,,,,,Woodward & Tozer Ave NB - #2145,0,2536,
42.984804,0,2146,-81.269627,,,,,Woodward & Tozer Ave SB - #2146,0,2537,
42.986627,0,2143,-81.269737,,,,,Woodward & Edinburgh St SB - #2143,0,2534,
42.983507,0,2144,-81.269484,,,,,Woodward & Riverside Dr NB - #2144,0,2535,
42.950456,0,947,-81.255103,,,,,Highview & Rossmore Place NB - #947,0,1832,
42.950352,0,948,-81.255194,,,,,Highview & Rossmore Pl SB - #948,0,1833,
42.952747,0,945,-81.255522,,,,,Highview & Rossmore Crt NB - #945,0,1830,
42.952859,0,946,-81.255598,,,,,Highview & Rossmore Crt SB - #946,0,1831,
42.954023,0,950,-81.256969,,,,,Highview & Wharncliffe Rd NS 1 WB - #950,0,1836,
42.953793,0,949,-81.259268,,,,,Highview & Wharncliffe Rd FS 1 EB - #949,0,1834,
42.953949,0,2236,-81.257261,,,,,Highview & Wharncliffe Rd FS 2 EB - #2236,0,1835,
42.945862,0,2589,-81.26784,,,,,Notre Dame & Belmont NS NB - #2589,0,3795,
42.942767,0,2590,-81.266955,,,,,Notre Dame & Norton FS NB - #2590,0,3794,
42.925043,0,2595,-81.275786,,,,,Wharncliffe & Wonderland NS SB - #2595,0,3797,
42.948463,0,2592,-81.270496,,,,,Notre Dame & Viscount NS NB - #2592,0,3796,
42.941215,0,2594,-81.257979,,,,,Wharncliffe & Southdale NS SB - #2594,0,3791,
42.940969,0,2591,-81.266574,,,,,Notre Dame & Southdale FS NB - #2591,0,3793,
42.937396,0,2593,-81.261016,,,,,Wharncliffe & Legendary FS SB - #2593,0,3792,
42.961246,0,1533,-81.243171,,,,,Ridout & Baseline Rd SB - #1533,0,2154,
42.973116,0,1534,-81.249146,,,,,Ridout & Bruce St NB - #1534,0,2155,
42.962403,0,1562,-81.323363,,,,,Riverside & St. Anthony Rd EB - #1562,0,939,
42.963274,0,1536,-81.244155,,,,,Ridout & Chester St NB - #1536,0,2157,
42.968301,0,1529,-81.276151,,,,,Ridgewood & Greenwood Ave WB - #1529,0,2150,
42.96781,0,2320,-81.280973,,,,,Ridgewood & Kernohan Parkway EB - #2320,0,2151,
42.967407,0,1531,-81.246257,,,,,Ridout & Baker St NB - #1531,0,2152,
42.960517,0,1532,-81.242718,,,,,Ridout & Baseline Rd NB - #1532,0,2153,
42.971955,0,1341,-81.333339,,,,,Oxford & Sanatorium Rd EB - #1341,0,933,
42.968935,0,1633,-81.332904,,,,,Sanatorium & Sutton Place NB - #1633,0,932,
42.966241,0,1629,-81.331549,,,,,Sanatorium & Plymouth Ave NB - #1629,0,931,
42.965445,0,1631,-81.331142,,,,,Sanatorium & Riverside Dr NB - #1631,0,930,
42.963646,0,1592,-81.329265,,,,,Riverside & Sanatorium Rd EB - #1592,0,937,
42.974746,0,1337,-81.323709,,,,,Oxford & Royal York Rd FS EB - #1337,0,936,
42.973813,0,1339,-81.326909,,,,,Oxford & Royal York Rd NS EB - #1339,0,935,
42.972605,0,1324,-81.331086,,,,,Oxford & Old Hunt Rd EB - #1324,0,934,
43.019017,0,1096,-81.240873,,,,,Kipps & Belfield Dr EB - #1096,0,1955,
43.020689,0,1095,-81.235287,,,,,Kipps & Barker St EB - #1095,0,1954,
43.019722,0,1098,-81.238523,,,,,Kipps & Country Lane EB - #1098,0,1957,
43.022453,0,1097,-81.229344,,,,,Kipps & Briarhill Rd EB - #1097,0,1956,
42.978802,0,1091,-81.290458,,,,,Kingsway & Wonderland EB - #1091,0,1951,
42.965959,0,1090,-81.208889,,,,,King Edward & Vermont Ave NB - #1090,0,1950,
43.021146,0,1094,-81.233784,,,,,Kipps & Arbour Glen Cres E Leg EB - #1094,0,1953,
42.978844,0,1092,-81.290607,,,,,Kingsway & Wonderland WB - #1092,0,1952,
43.02175,0,1099,-81.231774,,,,,Kipps & Kenmore Pl EB - #1099,0,1958,
43.002591,0,1296,-81.228723,,,,,Oxford & Gammage St EB - #1296,0,829,
43.001599,0,1287,-81.2321,,,,,Oxford & Elliott St EB - #1287,0,828,
42.998642,0,1320,-81.242401,,,,,Oxford & Maitland EB - #1320,0,825,
42.997644,0,1280,-81.245728,,,,,Oxford & Colborne St EB - #1280,0,824,
43.000833,0,1285,-81.234811,,,,,Oxford & Elizabeth St EB - #1285,0,827,
42.9993,0,1360,-81.240156,,,,,Oxford & William St EB - #1360,0,826,
42.985588,0,1474,-81.250648,,,,,Richmond & Fullarton St SB - #1474,0,821,
42.986949,0,1467,-81.250774,,,,,Richmond & Dufferin Ave SB - #1467,0,820,
42.996846,0,1354,-81.248395,,,,,Oxford & Waterloo St EB - #1354,0,823,
42.996041,0,1356,-81.251186,,,,,Oxford & Wellington St EB - #1356,0,822,
42.956814,0,457,-81.263811,,,,,Commissioners & Gordon Ave WB - #457,0,1483,
42.956583,0,456,-81.264504,,,,,Commissioners & Gordon EB - #456,0,1482,
42.960331,0,455,-81.209188,,,,,Commissioners & Frontenac WB - #455,0,1481,
42.960312,0,454,-81.20809,,,,,Commissioners & Frontenac EB - #454,0,1480,
42.960842,0,463,-81.205928,,,,,Commissioners & King Edward WB - #463,0,1487,
42.960762,0,462,-81.205452,,,,,Commissioners & King Edward Ave EB - #462,0,1486,
42.95665,0,461,-81.267432,,,,,Commissioners & Huxley WB - #461,0,1485,
42.956456,0,460,-81.266952,,,,,Commissioners & Highview EB - #460,0,1484,
42.95983,0,465,-81.212451,,,,,Commissioners & Leathorne WB - #465,0,1489,
42.959597,0,464,-81.212585,,,,,Commissioners & Leathorne EB - #464,0,1488,
43.032115,0,708,-81.264402,,,,,Fanshawe & Phillbrook Dr WB - #708,0,797,
43.03289,0,691,-81.261771,,,,,Fanshawe & Geary Ave WB - #691,0,796,
43.033749,0,712,-81.258955,,,,,Fanshawe & Stoneybrook Cr NE Leg WB - #712,0,795,
42.96418,0,765,-81.284779,,,,,Gardenwood & Southcrest Dr FS 1 NB - #765,0,1710,
42.950526,0,780,-81.192745,,,,,Glenroy & Pond View Rd   SB - #780,0,1717,
42.952648,0,776,-81.193173,,,,,Glenroy & Glenroy Court SB - #776,0,1716,
42.954838,0,770,-81.194092,,,,,Glenroy & Deveron Cres SB - #770,0,1715,
43.039714,0,,-81.238775,,,,,Fanshawe & Glenora Dr. WB - #,0,790,
42.978433,0,,-81.172081,,,,,Gore & Braeside Ave WB - #,0,1718,
43.030043,0,699,-81.271423,,,,,Fanshawe & Jennifer Rd 1 WB - #699,0,799,
43.030992,0,696,-81.268125,,,,,Fanshawe & Hastings Dr - NE Leg WB - #696,0,798,
42.999161,0,1896,-81.170685,,,,,Wavell & Castle Dr EB - #1896,0,2412,
42.934315,0,1228,-81.208905,,,,,Newbold & Adelaide EB - #1228,0,613,
42.998472,0,1900,-81.173076,,,,,Wavell & Clarke Rd NS EB - #1900,0,2415,
42.959097,0,174,-81.192684,,,,,Banbury & Deveron EB - #174,0,1272,
42.998854,0,1898,-81.171841,,,,,Wavell & Clarke Rd FS EB - #1898,0,2414,
43.008913,0,1819,-81.262137,,,,,UWO-University Dr & Richmond St WB - #1819,0,1139,
43.008938,0,1818,-81.261536,,,,,UWO-University Dr & Richmond EB - #1818,0,1138,
43.00195,0,1902,-81.167434,,,,,Wavell & Dundas St NS 1 NB - #1902,0,2417,
43.040279,0,1809,-81.244922,,,,,Trossacks & McTaggart Cr (S.Leg) N - #1809,0,1133,
43.038474,0,1385,-81.258745,,,,,Phillbrook & Silverbrook Dr WB - #1385,0,1132,
43.037281,0,1383,-81.263101,,,,,Phillbrook & Phillbrook Cr (W Leg) - #1383,0,1130,
43.040496,0,803,-81.248311,,,,,Grenfell & Midale WB - #803,0,1137,
43.03882,0,801,-81.251795,,,,,Grenfell & Grenfell Cr WB - #801,0,1135,
43.038129,0,800,-81.256174,,,,,Grenfell & Adelaide St WB - #800,0,1134,
42.962034,0,482,-81.339632,,,,,Commissioners & Stephen WB - #482,0,920,
42.934763,0,1231,-81.20534,,,,,Newbold & Consortium Crt EB - #1231,0,614,
43.004325,0,1903,-81.168777,,,,,Wavell & Dundas St FS 2 SB - #1903,0,2418,
42.961527,0,178,-81.233563,,,,,Base Line & Balderstone Ave EB - #178,0,1277,
43.025666,0,1141,-81.281723,,,,,Masonville Terminal Stop #2 - #1141,0,149_merged_921654,
42.968266,0,1528,-81.276056,,,,,Ridgewood & Greenwood Ave EB - #1528,0,2149,
42.938788,0,1202,-81.226645,,,,,Montgomery & Montgomery Gate NB - #1202,0,1009,
42.93534,0,1197,-81.225813,,,,,Montgomery & Bradley Ave NB - #1197,0,1008,
42.934508,0,2327,-81.224159,,,,,Bradley & Wellington St WB - #2327,0,1007,
42.934989,0,2205,-81.218937,,,,,Bradley & Willow Dr NS 2 WB - #2205,0,1006,
42.935836,0,2324,-81.21345,,,,,Bradley & Adelaide FS 2 WB - #2324,0,1005,
42.935252,0,293,-81.216461,,,,,Bradley & Willow Dr NS 1 WB - #293,0,1004,
42.935976,0,292,-81.209553,,,,,Bradley & Adelaide St FS 1 WB - #292,0,1003,
42.943708,0,77,-81.214531,,,,,Adelaide & Southdale Rd SB - #77,0,1002,
42.944705,0,1690,-81.212499,,,,,Southdale & Millbank Dr W Leg FS WB - #1690,0,1001,
43.011684,0,118,-81.321557,,,,,Aldersbrook & Blackacres NS NB - #118,0,1227,
42.993947,0,117,-81.311052,,,,,Aldersbrook & Barrydale SB - #117,0,1226,
42.993378,0,116,-81.307808,,,,,Aldersbrook & Aurora SB - #116,0,1225,
43.001494,0,115,-81.314973,,,,,Aldersbrook & Ardsley Rd SB - #115,0,1224,
42.929375,0,989,-81.183108,,,,,Hubrey & Wilton Grove SB - #989,0,627,
42.927087,0,1941,-81.2183,,,,,Wellington & Exeter Rd SB - #1941,0,626,
43.015009,0,2420,-81.319046,,,,,Aldersbrook & Aldersbrook Cres EB - #2420,0,1221,
42.933034,0,651,-81.184689,,,,,Enterprise & Hubrey Road EB - #651,0,624,
42.928073,0,2299,-81.193661,,,,,Wilton Grove & Pond Mills Rd FS WB - #2299,0,629,
42.928501,0,2300,-81.189098,,,,,Wilton Grove & Pondmills NS WB - #2300,0,628,
43.011434,0,119,-81.321682,,,,,Aldersbrook & Blackacres SB - #119,0,1228,
42.947097,0,2440,-81.288741,,,,,Wonderland & Viscount - #2440,0,2883,
43.02038,0,302,-81.227859,,,,,Briarhill & Melsandra Ave NS SB - #302,0,2,
42.989722,0,2668,-81.164239,,,,,Marconi & Noel NB - #2668,0,3878,
42.99274,0,2670,-81.167273,,,,,Marconi & Trafalgar NB - #2670,0,3879,
42.94714,0,2641,-81.247113,,,,,Ferndale & Hampstead EB - #2641,0,3870,
42.947192,0,2642,-81.247644,,,,,Ferndale & Hampstead WB - #2642,0,3871,
42.946761,0,2645,-81.243845,,,,,Ferndale & Vincent E Leg WB - #2645,0,3872,
42.946969,0,2644,-81.250793,,,,,Ferndale & Homeview WB - #2644,0,3873,
42.98719,0,2666,-81.156276,,,,,Marconi & Exmouth WB - #2666,0,3875,
42.986551,0,2671,-81.160893,,,,,Maconi & Woodview WB - #2671,0,3876,
42.987999,0,2667,-81.163007,,,,,Marconi & Julia NB - #2667,0,3877,
42.969234,0,1089,-81.212795,,,,,King Edward & Thompson Rd SB - #1089,0,11,
42.971741,0,1422,-81.207216,,,,,Pond Mills & Scenic Dr FS SB - #1422,0,10,
42.962191,0,452,-81.1969,,,,,Commissioners & Deveron WB Oreilys - #452,0,13,
42.962132,0,1077,-81.20638,,,,,King Edward & Burlington  Cres NB - #1077,0,12,
42.971897,0,1421,-81.207463,,,,,Pond Mills & Scenic Dr NB - #1421,0,15,
42.962337,0,450,-81.195987,,,,,Commissioners & Deveron WB Fire Hall - #450,0,14,
42.968275,0,1777,-81.223112,,,,,Thompson & Adelaide St WB - #1777,0,19,
42.969475,0,,-81.212779,,,,,King Edward & Thompson - #,0,18,
42.905571,0,2691,-81.294421,,,,,Sunray & Howard NS WB - #2691,0,3904,
42.90512,0,2703,-81.297752,,,,,Sunray & Colonel Talbot WB - #2703,0,3905,
42.987011,0,2701,-81.304547,,,,,Beaverbrook & Whetherfield EB - #2701,0,3906,
43.033056,0,2715,-81.26439,,,,,Phillbrook & Donnybrook NB - #2715,0,3907,
43.045234,0,2699,-81.26551,,,,,Sunningdale & Blackwater EB - #2699,0,3900,
43.044659,0,2693,-81.259913,,,,,Adelaide & Blackwater NS SB - #2693,0,3901,
43.047611,0,2700,-81.257938,,,,,Sunningdale & YMCA WB - #2700,0,3902,
43.046477,0,2697,-81.26173,,,,,Sunningdale & Adelaide WB - #2697,0,3903,
43.035063,0,2713,-81.26471,,,,,Phillbrook & Billybrook NB 1 - #2713,0,3908,
43.037259,0,2714,-81.263054,,,,,Phillbrook and Billybrook NB 2 - #2714,0,3909,
42.98814,0,895,-81.199636,,,,,Highbury & Brydges St NB - #895,0,201,
42.989993,0,2387,-81.31626,,,,,Beaverbrook & Sarnia NB - #2387,0,3474,
42.997192,0,900,-81.203795,,,,,Highbury & Dundas St NB - #900,0,203,
43.019576,0,913,-81.215148,,,,,Highbury & Huron St NB - #913,0,205,
43.009316,0,924,-81.209776,,,,,Highbury & Oxford St FS NB - #924,0,204,
43.016179,0,176,-81.232,,,,,Barker & Huron SB - #176,0,206,
43.007703,0,925,-81.209314,,,,,Highbury & Oxford St FS 1 SB - #925,0,209,
43.023581,0,2393,-81.153353,,,,,Crumlin & Oxford NB - #2393,0,3476,
42.99873,0,571,-81.19687,,,,,Dundas & Hale St FS EB - #571,0,1573,
43.018673,0,490,-81.150931,,,,,Crumlin & Page NB - #490,0,3477,
43.007187,0,570,-81.167455,,,,,Dundas & Forest Lawn Ave WB - #570,0,1572,
42.938947,0,1178,-81.200415,,,,,Millbank & Bexhill Drive (S Leg) SB - #1178,0,687,
42.988147,0,2384,-81.300551,,,,,Beaverbrook & Capulet EB - #2384,0,3471,
42.925738,0,1658,-81.225438,,,,,Sholto & Exeter NB - #1658,0,2239,
42.96255,0,2452,-81.19923,,,,,Shelbourne btn Burlington/Deveron E - #2452,0,2238,
42.999142,0,568,-81.196111,,,,,Dundas & First St FS WB - #568,0,1570,
43.016753,0,2228,-81.201572,,,,,Fanshawe College Blvd & Cheapside NB - #2228,0,2231,
43.008661,0,1653,-81.335843,,,,,Seagull & Hyde Park WB - #1653,0,2230,
43.015534,0,2230,-81.198241,,,,,Fanshawe College Blvd & Fleming Dr NB - #2230,0,2233,
42.963077,0,1657,-81.196346,,,,,Shelbourne & Deveron EB - #1657,0,2237,
42.963197,0,1656,-81.200141,,,,,Shelbourne & Burlington Gate SB - #1656,0,2236,
42.998058,0,573,-81.199337,,,,,Dundas & Hale St NS EB - #573,0,1575,
42.998415,0,572,-81.19858,,,,,Dundas & Hale St NS WB - #572,0,1574,
43.008561,0,2419,-81.335487,,,,,Seagull & Hyde Park EB - #2419,0,3498,
42.963927,0,2392,-81.181193,,,,,Commissioners & Meadowgate EB - #2392,0,3499,
43.010842,0,2421,-81.333697,,,,,Stanton & Fanshawe Park Rd NB - #2421,0,3496,
42.989248,0,2389,-81.29701,,,,,Beaverbrook & Wonderland EB - #2389,0,3497,
43.005617,0,2413,-81.147772,,,,,Sovereign & Admiral NS SB - #2413,0,3494,
43.00778,0,2414,-81.151293,,,,,Sovereign & Sovereign NB - #2414,0,3495,
43.017674,0,2411,-81.152605,,,,,Page & Cuddy EB - #2411,0,3492,
43.00452,0,2412,-81.150482,,,,,Sovereign & Admiral NB - #2412,0,3493,
42.988703,0,2408,-81.305456,,,,,Oakcrossing & Mapleridge S Leg - #2408,0,3490,
43.023466,0,1283,-81.156676,,,,,Oxford & Cuddy Blvd WB - #1283,0,3491,
42.983285,0,2342,-81.28431,,,,,Proudfoot & Forest Hills WB - #2342,0,2095,
42.983223,0,2341,-81.284753,,,,,Proudfoot & Forest Hills EB - #2341,0,2094,
42.98627,0,1428,-81.288546,,,,,Proudfoot & Farrah Rd SB - #1428,0,2097,
42.988837,0,1427,-81.289729,,,,,Proudfoot & Farrah Rd FS NB - #1427,0,2096,
42.972444,0,2449,-81.209591,,,,,Pond Mills & Scenic Dr NS SB - #2449,0,2091,
42.949301,0,1420,-81.195321,,,,,Pond Mills & Pondview Rd NB - #1420,0,2090,
42.984185,0,1424,-81.28149,,,,,Proudfoot & Beaverbrook Ave FS WB - #1424,0,2093,
42.984089,0,1423,-81.281458,,,,,Proudfoot & Beaverbrook Ave NS EB - #1423,0,2092,
42.9861,0,1430,-81.288366,,,,,Proudfoot & Oxford St FS NB - #1430,0,2099,
42.987136,0,1429,-81.288882,,,,,Proudfoot & Farrah Rd NS NB - #1429,0,2098,
43.010186,0,2099,-81.305943,,,,,Wonderland & Blackacres Blvd SB - #2099,0,2524,
42.994507,0,2322,-81.298298,,,,,Wonderland & Sarnia Rd FS SB - #2322,0,2527,
42.959528,0,2124,-81.293657,,,,,Wonderland & Rosecliffe Terr. SB - #2124,0,2526,
43.016218,0,2095,-81.309195,,,,,Wonderland & Aldersbrook Rd SB - #2095,0,2521,
43.017494,0,2086,-81.268651,,,,,Windermere & Tallwood WB - #2086,0,2520,
43.014409,0,2096,-81.308227,,,,,Wonderland & Attawandaron Gt. SB - #2096,0,2523,
42.9478,0,943,-81.255608,,,,,Highview & Ferndale Ave NB - #943,0,1829,
42.968769,0,940,-81.238034,,,,,High & Windsor Cres FS N Leg SB - #940,0,1828,
42.967146,0,939,-81.237566,,,,,High & Windsor Ave FS S Leg NB - #939,0,1825,
42.970119,0,938,-81.238413,,,,,High & McClary Ave SB - #938,0,1824,
42.968628,0,941,-81.237928,,,,,High & Windsor Cres NS N Leg NB - #941,0,1827,
42.967233,0,942,-81.237654,,,,,High & Windsor Ave NS SB - #942,0,1826,
42.965409,0,933,-81.237156,,,,,High & Emery St NB - #933,0,1821,
42.963761,0,932,-81.236863,,,,,High & Chester St SB - #932,0,1820,
42.970139,0,937,-81.238304,,,,,High & McClary Ave NB - #937,0,1823,
42.965776,0,934,-81.237322,,,,,High & Emery St SB - #934,0,1822,
42.96806,0,1526,-81.278256,,,,,Ridgewood & Beachwood Ave EB - #1526,0,2147,
42.981424,0,1525,-81.248531,,,,,Richmond & York St SB - #1525,0,2146,
42.999564,0,1897,-81.169557,,,,,Wavell & Castle Dr WB - #1897,0,2413,
43.009232,0,1513,-81.261626,,,,,Richmond & University Dr. SB - #1513,0,2144,
43.008865,0,1512,-81.261028,,,,,Richmond & University Dr. NB - #1512,0,2143,
42.977941,0,1510,-81.246863,,,,,Richmond & Simcoe St SB - #1510,0,2142,
42.977308,0,1509,-81.246413,,,,,Richmond & Simcoe St NB - #1509,0,2141,
43.01216,0,1505,-81.26464,,,,,Richmond & Raymond Ave FS SB - #1505,0,2140,
43.004243,0,1904,-81.168644,,,,,Wavell & Dundas St NS 2 NB - #1904,0,2419,
42.962581,0,811,-81.342749,,,,,Griffith & Commissioners Rd W SB - #811,0,921,
42.959851,0,816,-81.34213,,,,,Griffith & Helena Montague Ave SB - #816,0,922,
42.956299,0,817,-81.34119,,,,,Griffith & Norman Ave SB - #817,0,923,
42.952538,0,314,-81.33747,,,,,Byron Baseline & Belvedere EB - #314,0,924,
42.952739,0,315,-81.33537,,,,,Byron Baseline & Brock St. EB - #315,0,925,
42.952929,0,316,-81.333022,,,,,Byron Baseline & Byron Blvd EB - #316,0,926,
42.968111,0,1527,-81.278352,,,,,Ridgewood & Beachwood Ave WB - #1527,0,2148,
42.940752,0,1055,-81.236511,,,,,Jalna & Ernest Ave E EB - #1055,0,1920,
42.925286,0,1056,-81.235316,,,,,Jalna & Ernest Ave S WB - #1056,0,1921,
42.925268,0,1057,-81.234714,,,,,Jalna & Ernest Ave S EB - #1057,0,1922,
42.927868,0,1058,-81.243276,,,,,Jalna & Fairchild N Leg NB - #1058,0,1923,
42.92513,0,1059,-81.241265,,,,,Jalna & Fairchild Cres (S Leg) WB - #1059,0,1924,
42.938372,0,1060,-81.245514,,,,,Jalna & Josselyn  Dr. S Leg NB - #1060,0,1925,
42.940554,0,1061,-81.244017,,,,,Jalna & Josselyn NS SB - #1061,0,1926,
42.938103,0,1062,-81.245772,,,,,Jalna & Josselyn FS SB - #1062,0,1927,
42.926158,0,1063,-81.231418,,,,,Jalna & Meg Dr WB - #1063,0,1928,
42.928458,0,1064,-81.22641,,,,,Jalna & Piers Cr N Leg NB - #1064,0,1929,
43.004968,0,1293,-81.220662,,,,,Oxford & Fleet St EB - #1293,0,832,
43.005337,0,1345,-81.219336,,,,,Oxford & Spittal St EB - #1345,0,833,
43.003347,0,1346,-81.226199,,,,,Oxford & Sterling St EB - #1346,0,830,
43.003786,0,1329,-81.224718,,,,,Oxford & Quebec St EB - #1329,0,831,
43.00738,0,1322,-81.212057,,,,,Oxford & Mornington Ave EB - #1322,0,836,
43.007889,0,1307,-81.210425,,,,,Oxford & Highbury Ave NS EB - #1307,0,837,
42.986876,0,2385,-81.3057,,,,,Beaverbrook & Oakcrossing E Leg WB - #2385,0,3472,
43.006964,0,1289,-81.213768,,,,,Oxford & Empire St EB - #1289,0,835,
43.012141,0,1343,-81.19586,,,,,Oxford & Second St EB - #1343,0,839,
43.021531,0,2394,-81.155978,,,,,Cuddy & Artisans Cres SB N Leg - #2394,0,3478,
43.018061,0,2395,-81.154256,,,,,Cuddy & Page SB - #2395,0,3479,
43.012128,0,996,-81.242232,,,,,Huron & Adelaide St NS 2 WB - #996,0,3,
43.02586,0,1142,-81.281823,,,,,Masonville Terminal & Stop #3 - #1142,0,374_merged_921644,
42.969495,0,796,-81.275946,,,,,Greenwood & Ridgewood Cres NB - #796,0,1729,
42.971894,0,792,-81.241983,,,,,Grand & High St FS 2 WB - #792,0,1726,
42.971973,0,790,-81.240767,,,,,Grand & High St EB - #790,0,1724,
42.972112,0,791,-81.24004,,,,,Grand & High St FS 1 WB - #791,0,1725,
42.971753,0,788,-81.242773,,,,,Grand & Gerrard St EB - #788,0,1722,
43.041634,0,,-81.232485,,,,,Fanshawe & McLean WB - #,0,789,
42.962676,0,2196,-81.288377,,,,,Berkshire & Berkshire Place SB - #2196,0,153,
43.010981,0,2223,-81.200959,,,,,Fanshawe College Stop 2 - #2223,0,61,
43.008198,0,1308,-81.209901,,,,,Oxford & Highbury Ave FS WB - #1308,0,62,
43.000109,0,1261,-81.237837,,,,,Oxford & Adelaide St WB - #1261,0,63,
42.984001,0,1472,-81.24976,,,,,Richmond & Dundas St NS SB - #1472,0,65,
42.965227,0,1541,-81.245179,,,,,Ridout & Emery St SB - #1541,0,66,
42.952254,0,384,-81.233581,,,,,Chiddington & Chiddington Ave SB - #384,0,67,
42.942508,0,,-81.236577,,,,,Southdale & Nixon - #,0,69,
42.994125,0,588,-81.213073,,,,,Dundas & Nightingale Ave EB - #588,0,1589,
43.002758,0,582,-81.183265,,,,,Dundas & Kathleen Ave WB - #582,0,1582,
42.993448,0,583,-81.215446,,,,,Dundas & Kellogg Lane EB - #583,0,1583,
42.944798,0,580,-81.244219,,,,,Dundalk & Hines Cres SB - #580,0,1580,
43.009168,0,581,-81.160049,,,,,Dundas & Industrial Rd WB - #581,0,1581,
42.987404,0,586,-81.236751,,,,,Dundas & Maitland St WB - #586,0,1586,
43.001873,0,587,-81.185862,,,,,Dundas & Manitoba EB - #587,0,1587,
42.989387,0,584,-81.229835,,,,,Dundas & Lyle St EB - #584,0,1584,
42.987275,0,585,-81.237054,,,,,Dundas & Maitland St EB - #585,0,1585,
42.947415,0,1997,-81.29255,,,,,Westmount Mall Stop 1 - #1997,0,159,
42.976791,0,2122,-81.289775,,,,,Wonderland & Riverside Dr NB - #2122,0,1038,
42.97895,0,2108,-81.29008,,,,,Wonderland & Kingsway Ave NB - #2108,0,1039,
42.957808,0,183,-81.278517,,,,,Base Line & Delta Pl SB - #183,0,158,
42.95344,0,2100,-81.290359,,,,,Wonderland & Commissioners Rd NS NB - #2100,0,1032,
42.959046,0,2134,-81.293315,,,,,Wonderland & Teeple Terr. NB - #2134,0,1033,
42.948946,0,2139,-81.289303,,,,,Wonderland & Viscount Rd FS 2 NB - #2139,0,1030,
42.95074,0,2135,-81.289716,,,,,Wonderland & Village Green Ave NB - #2135,0,1031,
42.960797,0,242,-81.282859,,,,,Berkshire & Robin Rd NB - #242,0,1036,
42.964044,0,244,-81.290657,,,,,Berkshire & Springbank NB - #244,0,1037,
42.959616,0,1764,-81.288038,,,,,Teeple & Applewood EB - #1764,0,1034,
42.95949,0,248,-81.286181,,,,,Berkshire & Westmorland EB - #248,0,1035,
42.927687,0,2303,-81.198286,,,,,Wilton Grove & Sise Rd NS WB - #2303,0,630,
43.002464,0,101,-81.156352,,,,,Admiral & Vaubois EB - #101,0,1213,
42.997513,0,99,-81.161871,,,,,Admiral & Kipling - West Leg EB - #99,0,1211,
43.003977,0,104,-81.150998,,,,,Admiral & Veterans Memorial Pkwy WB - #104,0,1216,
43.002581,0,102,-81.15622,,,,,Admiral & Vaubois WB - #102,0,1214,
42.928763,0,2297,-81.185865,,,,,Wilton Grove & Midpark Rd WB - #2297,0,638,
42.956735,0,278,-81.332025,,,,,Boler & Glenrose NB - #278,0,927,
42.991416,0,2207,-81.192435,,,,,Brydges & Cornish St. EB - #2207,0,2416,
42.94568,0,1683,-81.200586,,,,,Southdale & Koru Crt EB - #1683,0,1106,
43.02762,0,393,-81.199787,,,,,Chippewa & Trevor WB - #393,0,1455,
42.944622,0,1689,-81.212057,,,,,Southdale & Millbank Dr W Leg NS - #1689,0,1104,
43.003587,0,423,-81.175186,,,,,Clarke & Whitney FS NB - #423,0,1457,
42.953264,0,389,-81.239981,,,,,Chiddington & Upper Queens St WB - #389,0,1450,
42.934873,0,298,-81.218812,,,,,Bradley & Willow Dr FS 1 EB - #298,0,1100,
42.935783,0,291,-81.213495,,,,,Bradley & Adelaide NS 1 EB - #291,0,1101,
42.953063,0,1415,-81.196476,,,,,Pond Mills & Millridge Rd. NB - #1415,0,1108,
42.951371,0,1417,-81.196403,,,,,Pond Mills & NCL Millridge Rd NB - #1417,0,1109,
42.94692,0,2643,-81.250697,,,,,Ferndale & Homeview EB - #2643,0,3869,
42.964655,0,2664,-81.314941,,,,,Hyde Park & Riverside SB - #2664,0,3868,
42.977398,0,2672,-81.178169,,,,,Montabello & Eldorado SB - #2672,0,3863,
42.980081,0,2673,-81.17982,,,,,Montabello & Tweedsmuir SB - #2673,0,3862,
42.982431,0,2665,-81.181183,,,,,Manitoulin & Tweedsmuir SB - #2665,0,3861,
42.982669,0,2676,-81.187178,,,,,Tweedsmuir & Manitoulin EB - #2676,0,3860,
42.968815,0,2663,-81.316153,,,,,Hyde Park & Hazelden SB - #2663,0,3867,
42.979066,0,2647,-81.169465,,,,,Gore & Firestone NS EB - #2647,0,3866,
42.978112,0,2646,-81.172935,,,,,Gore & Braesyde NS EB - #2646,0,3865,
42.976956,0,2648,-81.177237,,,,,Gore & Valleyview Apartments EB - #2648,0,3864,
43.02051,0,1034,-81.164333,,,,,Industrial & Oxford St NB - #1034,0,1894,
43.015832,0,1035,-81.162017,,,,,Industrial & Page St FS 1 NB - #1035,0,1895,
42.946155,0,575,-81.243894,,,,,Dundalk & Harcroft Cres (N Leg) SB - #575,0,1577,
42.928698,0,1037,-81.226556,,,,,Jalna & Alyne Cr (N Leg) SB - #1037,0,1897,
43.013786,0,1024,-81.236594,,,,,Huron & Wedgewood WB - #1024,0,1890,
42.971742,0,1027,-81.317032,,,,,Hyde Park & Fiddlers Green Rd SB - #1027,0,1891,
42.981119,0,1028,-81.323053,,,,,Hyde Park & Ivanhill Rd NB - #1028,0,1892,
42.997855,0,574,-81.200533,,,,,Dundas & Hale St FS WB - #574,0,1576,
43.043082,0,2704,-81.227354,,,,,Fanshawe & Highbury WB - #2704,0,3917,
43.038304,0,2717,-81.244524,,,,,Trossacks and Fanshawe SB - #2717,0,3916,
43.042841,0,2709,-81.24634,,,,,Grenfell & Trossacks EB - #2709,0,3915,
43.040411,0,2708,-81.248328,,,,,Grenfell & Midale NB - #2708,0,3914,
43.03888,0,2705,-81.249874,,,,,Grenfell & Grenfell Cres NB - #2705,0,3913,
43.03879,0,2707,-81.252709,,,,,Grenfell & Laing EB - #2707,0,3912,
43.038034,0,2706,-81.256354,,,,,Grenfell & Adelaide EB - #2706,0,3911,
43.038484,0,2716,-81.259974,,,,,Phillbrook & Pennybrook EB - #2716,0,3910,
43.033585,0,2710,-81.222315,,,,,1550 Highbury NB - #2710,0,3919,
43.039625,0,2711,-81.22522,,,,,Highbury & Killarney NB - #2711,0,3918,
42.959398,0,216,-81.260128,,,,,Base Line & Wharncliffe Rd WB - #216,0,216,
42.948172,0,163,-81.275288,,,,,Andover & Viscount SB - #163,0,217,
42.945472,0,1686,-81.203992,,,,,Southdale & Millbank Dr E Leg WB - #1686,0,214,
42.977359,0,1546,-81.251468,,,,,Ridout & Horton St SB - #1546,0,215,
42.987717,0,896,-81.199767,,,,,Highbury & Brydges St SB - #896,0,212,
42.978297,0,910,-81.194977,,,,,Highbury & Hamilton Rd SB - #910,0,213,
42.996432,0,901,-81.203754,,,,,Highbury & Dundas St SB - #901,0,210,
42.948217,0,164,-81.275205,,,,,Andover & Viscount FS NB - #164,0,219,
42.992511,0,1262,-81.262967,,,,,Oxford & St. Andrews St EB - #1262,0,957,
43.007234,0,1014,-81.258655,,,,,Huron & Richmond St WB - #1014,0,4,
42.991285,0,2407,-81.307739,,,,,Oakcrossing & Mapleridge N Leg - #2407,0,3489,
42.990626,0,2409,-81.31165,,,,,Oakcrossing Gate & Oakcrossing Rd SB - #2409,0,3488,
42.980882,0,2399,-81.323069,,,,,Hyde Park & Ivanhill RD SB - #2399,0,3481,
42.983117,0,2396,-81.324218,,,,,Hyde Park & Fitzwilliam SB - #2396,0,3480,
42.983037,0,2401,-81.324041,,,,,Hyde Park & Prince Phillip NB - #2401,0,3483,
42.976599,0,2400,-81.320755,,,,,Hyde Park & Oxford NB - #2400,0,3482,
42.977781,0,2403,-81.321509,,,,,Hyde Park & Royal York SB - #2403,0,3485,
42.978095,0,2402,-81.321505,,,,,Hyde Park & Royal York NB - #2402,0,3484,
42.995037,0,2405,-81.330379,,,,,Hyde Park & South Carriage SB - #2405,0,3487,
42.995536,0,2404,-81.330459,,,,,Hyde Park & South Carriage NB - #2404,0,3486,
42.986971,0,2162,-81.228111,,,,,York & Lyle St WB - #2162,0,2550,
42.984718,0,2163,-81.235931,,,,,York & Maitland St EB - #2163,0,2551,
42.98496,0,2164,-81.23544,,,,,York & Maitland St WB - #2164,0,2552,
42.981339,0,2167,-81.248072,,,,,York & Richmond St EB - #2167,0,2553,
42.979919,0,2168,-81.253319,,,,,York & Ridout St EB - #2168,0,2554,
42.980733,0,2169,-81.25036,,,,,York & Talbot St EB - #2169,0,2555,
42.979448,0,2170,-81.255056,,,,,York & Thames St EB - #2170,0,2556,
42.979536,0,2171,-81.255353,,,,,York & Thames St WB - #2171,0,2557,
42.983467,0,2172,-81.240461,,,,,York & Waterloo St EB - #2172,0,2558,
42.983498,0,2173,-81.240776,,,,,York & Waterloo St WB - #2173,0,2559,
42.950234,0,1877,-81.268816,,,,,Viscount & Galloway Cr SB - #1877,0,2396,
42.949847,0,1878,-81.269034,,,,,Viscount & Galloway Cr NS NB - #1878,0,2397,
42.947583,0,1875,-81.284005,,,,,Viscount & Foxmill Cr WB - #1875,0,2394,
42.95146,0,1876,-81.268015,,,,,Viscount & Galloway Cr FS NB - #1876,0,2395,
42.945708,0,1874,-81.295842,,,,,Viscount & Farnham Rd WB - #1874,0,2393,
42.955816,0,1872,-81.269168,,,,,Viscount & Commissioners Rd. W SB - #1872,0,2390,
42.944409,0,1873,-81.302864,,,,,Viscount & Cranbrook Rd WB - #1873,0,2391,
42.947631,0,1879,-81.280906,,,,,Viscount & Gardenvale Cr WB - #1879,0,2398,
42.981101,0,977,-81.239838,,,,,Horton & Waterloo St WB - #977,0,1859,
42.982411,0,967,-81.234569,,,,,Horton & Maitland St EB - #967,0,1850,
42.979173,0,968,-81.24636,,,,,Horton & Richmond St EB - #968,0,1851,
42.97894,0,969,-81.247975,,,,,Horton & Richmond St WB - #969,0,1852,
42.977674,0,971,-81.252268,,,,,Horton & Ridout St WB - #971,0,1853,
42.978411,0,972,-81.249018,,,,,Horton & Talbot St EB - #972,0,1854,
42.978561,0,973,-81.249193,,,,,Horton & Talbot St WB - #973,0,1855,
42.977193,0,974,-81.253856,,,,,Horton & Thames St EB - #974,0,1856,
42.962909,0,1554,-81.244023,,,,,Ridout & Rosel Cres SB - #1554,0,2172,
42.969857,0,1555,-81.247485,,,,,Ridout & Tecumseh Ave NB - #1555,0,2173,
42.959178,0,1552,-81.241992,,,,,Ridout & Mountsfield Cres NB - #1552,0,2170,
42.959504,0,1553,-81.242285,,,,,Ridout & Mountsfiled Cres SB - #1553,0,2171,
42.960372,0,458,-81.334565,,,,,Commissioners & Halls Mills Rd NS WB - #458,0,919,
42.961453,0,844,-81.334034,,,,,Halls Mills & Halls Mills Pl SB - #844,0,918,
42.969589,0,1556,-81.247432,,,,,Ridout & Tecumseh Ave SB - #1556,0,2174,
42.967104,0,1557,-81.246159,,,,,Ridout & Windsor Ave SB - #1557,0,2175,
42.969123,0,1634,-81.333177,,,,,Sanatorium & Sutton Place SB - #1634,0,915,
42.972164,0,1342,-81.332966,,,,,Oxford & Sanatorium Rd WB - #1342,0,914,
42.966492,0,1630,-81.3318,,,,,Sanatorium & Plymouth Ave SB - #1630,0,917,
42.965376,0,1632,-81.331258,,,,,Sanatorium & Riverside Dr SB - #1632,0,916,
42.974646,0,1338,-81.324364,,,,,Oxford & Royal York Rd NS WB - #1338,0,911,
42.976606,0,1292,-81.317731,,,,,Oxford & Fiddlers Green Rd WB - #1292,0,910,
42.972682,0,1325,-81.331109,,,,,Oxford & Old Hunt Rd WB - #1325,0,913,
42.973802,0,1340,-81.327313,,,,,Oxford & Royal York Rd FS WB - #1340,0,912,
43.008605,0,354,-81.231088,,,,,Cheapside & Gammage EB - #354,0,1420,
42.941114,0,1067,-81.231727,,,,,Jalna & Poplar Cres E Leg WB - #1067,0,1932,
42.938001,0,1065,-81.22926,,,,,Jalna & Ponderosa Cr N Leg NB - #1065,0,1930,
42.938776,0,1072,-81.229523,,,,,Jalna & Tumbleweed  Cres SB - #1072,0,1937,
42.941258,0,1071,-81.243625,,,,,Jalna & Southdale Rd NB - #1071,0,1936,
43.009135,0,411,-81.178086,,,,,Clarke & Parkhurst SB - #411,0,847,
43.009939,0,407,-81.178489,,,,,Clarke & Herbert SB - #407,0,846,
43.013964,0,492,-81.180833,,,,,Culver & Clarke Rd EB - #492,0,845,
43.013036,0,498,-81.183242,,,,,Culver & Culver Place 2 EB - #498,0,844,
43.010716,0,496,-81.182482,,,,,Culver & Culver Place 1 EB - #496,0,843,
43.00989,0,495,-81.184268,,,,,Culver & Culver Cr EB - #495,0,842,
43.008725,0,499,-81.187154,,,,,Culver & Third St EB - #499,0,841,
43.013429,0,1352,-81.191453,,,,,Oxford & Third St EB - #1352,0,840,
43.001983,0,360,-81.255573,,,,,Cheapside & Richmond WB - #360,0,1426,
43.004938,0,403,-81.176017,,,,,Clarke & Dundas SB - #403,0,849,
43.006869,0,2329,-81.176986,,,,,Clarke & Avalon SB - #2329,0,848,
42.965569,0,1970,-81.232118,,,,,Wellington & Thomas Janes Dr SB - #1970,0,664,
43.02586,0,1142,-81.281823,,,,,Masonville Terminal Stop #3 - #1142,0,374_merged_921651,
42.946162,0,812,-81.33628,,,,,Griffith & Dearborn Ave NE Leg SB - #812,0,1738,
42.971009,0,798,-81.277308,,,,,Greenwood & Springbank Dr NB - #798,0,1731,
42.969699,0,797,-81.276237,,,,,Greenwood & Ridgewood Cres SB - #797,0,1730,
42.979241,0,804,-81.236529,,,,,Grey & Colborne St WB - #804,0,1733,
42.970942,0,799,-81.277403,,,,,Greenwood & Springbank Dr SB - #799,0,1732,
42.977985,0,806,-81.241188,,,,,Grey & Wellington St WB - #806,0,1735,
42.978687,0,805,-81.238647,,,,,Grey & Waterloo St WB - #805,0,1734,
42.950519,0,809,-81.339957,,,,,Griffith & Byron Baseline Rd FS 2 WB - #809,0,1737,
42.953093,0,807,-81.325714,,,,,Griffith & Byron Baseline Rd E Leg - #807,0,1736,
42.943993,0,1712,-81.220942,,,,,Southdale & Willow Dr WB - #1712,0,732,
42.988374,0,1488,-81.250678,,,,,Richmond & Kent St NB - #1488,0,753,
42.98586,0,1442,-81.247506,,,,,Queens & Clarence St  WB - #1442,0,752,
42.97997,0,1949,-81.242623,,,,,Wellington & Horton St NS NB - #1949,0,751,
42.978868,0,1966,-81.242108,,,,,Wellington & Simcoe St NB - #1966,0,750,
42.994345,0,1499,-81.252516,,,,,Richmond & Piccadilly  NB - #1499,0,757,
42.992773,0,1496,-81.251649,,,,,Richmond & Pall Mall St NB - #1496,0,756,
42.991222,0,1483,-81.250886,,,,,Richmond & Hyman Ave NB - #1483,0,755,
42.989327,0,1457,-81.250695,,,,,Richmond & Albert St NB - #1457,0,754,
43.000039,0,1476,-81.255383,,,,,Richmond & Grosvenor St NB - #1476,0,759,
42.997499,0,1486,-81.254137,,,,,Richmond & St. James St NB - #1486,0,758,
42.992387,0,594,-81.219149,,,,,Dundas & Quebec St EB - #594,0,1595,
42.991671,0,593,-81.22204,,,,,Dundas & Ontario St WB - #593,0,1594,
42.990957,0,597,-81.22441,,,,,Dundas & Rectory St WB - #597,0,1597,
42.990756,0,596,-81.224836,,,,,Dundas & Rectory St EB - #596,0,1596,
42.996058,0,590,-81.206321,,,,,Dundas & Oakland Ave EB - #590,0,1591,
42.994113,0,589,-81.21351,,,,,Dundas & Nightingale Ave WB - #589,0,1590,
42.991523,0,592,-81.222292,,,,,Dundas & Ontario St EB - #592,0,1593,
42.996068,0,591,-81.206631,,,,,Dundas & Oakland Ave WB - #591,0,1592,
43.004071,0,601,-81.178616,,,,,Dundas & Ronald St WB - #601,0,1599,
42.982559,0,600,-81.253627,,,,,Dundas & Ridout St EB - #600,0,1598,
42.976094,0,887,-81.182582,,,,,Hamilton & Watmar Ave EB - #887,0,1802,
42.942462,0,2119,-81.283426,,,,,Wonderland & Pine Valley Gate NB - #2119,0,1025,
42.939594,0,2128,-81.281397,,,,,Wonderland & Southdale Rd NB - #2128,0,1024,
42.943955,0,2111,-81.287721,,,,,Wonderland & McMaster Dr FS NB - #2111,0,1027,
42.942913,0,2113,-81.285326,,,,,Wonderland & McMaster Dr NS NB - #2113,0,1026,
42.940325,0,1695,-81.264321,,,,,Southdale & Notre Dame Dr NS WB - #1695,0,1021,
42.939343,0,1714,-81.278838,,,,,Southdale & Wonderland Rd WB - #1714,0,1023,
42.940115,0,1696,-81.267119,,,,,Southdale & Notre Dame Dr FS WB - #1696,0,1022,
42.947525,0,2137,-81.288924,,,,,Wonderland & Viscount Rd FS 1 NB - #2137,0,1029,
42.946666,0,1889,-81.291751,,,,,Viscount & Wonderland Rd NS 1 EB - #1889,0,1028,
43.004249,0,35,-81.239265,,,,,Adelaide & Grosvenor St SB - #35,0,605,
43.004599,0,100,-81.148364,,,,,Admiral & Sovereign Rd WB - #100,0,1212,
42.979827,0,37,-81.227608,,,,,Adelaide & Hill St NB - #37,0,607,
42.982275,0,36,-81.228829,,,,,Adelaide & Hamilton St SB - #36,0,606,
42.999776,0,97,-81.161407,,,,,Admiral & Kipling - East Leg EB - #97,0,1209,
43.00203,0,96,-81.158034,,,,,Admiral & Carlyle WB - #96,0,1208,
43.029017,0,33,-81.251604,,,,,Adelaide & Glenora Dr NB - #33,0,603,
43.003065,0,93,-81.154082,,,,,Admiral & Bonaventure EB - #93,0,1205,
43.023888,0,90,-81.249244,,,,,Adelaide & Winderemere Rd SB - #90,0,1204,
43.001932,0,95,-81.158102,,,,,Admiral & Carlyle EB - #95,0,1207,
43.003092,0,94,-81.154332,,,,,Admiral & Bonaventure WB - #94,0,1206,
42.927041,0,250,-81.212835,,,,,Bessemer & Exeter NB - #250,0,609,
43.008164,0,87,-81.241064,,,,,Adelaide & Victoria St NB - #87,0,1200,
43.023119,0,89,-81.248628,,,,,Adelaide & Winderemere Rd NB - #89,0,1203,
43.02927,0,2186,-81.251929,,,,,Adelaide & Willowdale Ave SB - #2186,0,1202,
43.00412,0,558,-81.177839,,,,,Dundas & Edgeworth Ave EB - #558,0,1560,
42.953491,0,385,-81.237051,,,,,Chiddington & Huntingdon Dr EB - #385,0,1447,
42.960678,0,1419,-81.200278,,,,,Pond Mills & Oldham Cres N Leg NB - #1419,0,1110,
42.99171,0,381,-81.273521,,,,,Cherryhill & Platts Lane EB - #381,0,1445,
42.990061,0,380,-81.277226,,,,,Cherryhill & Oxford FS 2 NB - #380,0,1444,
42.989064,0,379,-81.276488,,,,,Cherryhill & Oxford SB - #379,0,1443,
42.989354,0,378,-81.276458,,,,,Cherryhill & Oxford FS 1 NB - #378,0,1442,
42.990272,0,376,-81.277785,,,,,Cherryhill & Cherryhill Place SB - #376,0,1441,
42.991975,0,375,-81.275413,,,,,Cherryhill & Cherryhill Circle NS 1 WB - #375,0,1440,
43.008569,0,509,-81.269757,,,,,UWO-Perth Dr & Middlesex Dr SB - #509,0,1119,
42.95317,0,388,-81.239879,,,,,Chiddington & Upper Queens St EB - #388,0,1449,
42.953562,0,386,-81.235669,,,,,Chiddington & Huntingdon Dr WB - #386,0,1448,
43.014943,0,113,-81.313413,,,,,Aldersbrook & Acorn Cres NS EB - #113,0,1219,
42.990083,0,1326,-81.271602,,,,,Oxford & Platts Lane WB - #1326,0,460,
42.975591,0,1311,-81.320655,,,,,Oxford & Hyde Park Rd EB - #1311,0,463,
43.012511,0,1344,-81.195051,,,,,Oxford & Fanshawe College Blvd WB - #1344,0,489,
42.962615,0,453,-81.193652,,,,,Commissioners & Deveron WB Food Basics - #453,0,991,
43.028165,0,2712,-81.219642,,,,,Highbury & Townsend NB - #2712,0,3920,
42.994507,0,562,-81.211776,,,,,Dundas & Eleanor St EB - #562,0,1564,
42.977769,0,2650,-81.191056,,,,,Hale & Hamilton NB - #2650,0,3856,
42.981756,0,2651,-81.191144,,,,,Hale & Magee NB - #2651,0,3857,
42.976602,0,2662,-81.185674,,,,,Hamilton & YMCA WB - #2662,0,3854,
42.97713,0,2656,-81.189507,,,,,Hamilton & Fairmont FS WB - #2656,0,3855,
42.975412,0,2660,-81.177125,,,,,Hamilton & Valleyview Appartments WB - #2660,0,3852,
42.976184,0,2661,-81.182626,,,,,Hamilton & Watmar WB - #2661,0,3853,
42.974125,0,2652,-81.171728,,,,,Hamilton & Braesyde NS WB - #2652,0,3850,
42.974825,0,2658,-81.174103,,,,,Hamilton opp Oaklands Tower WB - #2658,0,3851,
42.960494,0,1410,-81.200409,,,,,Pond Mills & Deveron Cres N Leg SB - #1410,0,992,
42.982974,0,2675,-81.190822,,,,,Tweedsmuir & Fairway EB - #2675,0,3858,
42.982168,0,2674,-81.185297,,,,,Tweedsmuir & Court Lane W Leg EB - #2674,0,3859,
42.990231,0,565,-81.226943,,,,,Dundas & English St WB - #565,0,1567,
42.945247,0,1685,-81.205007,,,,,Southdale & Millbank Dr E Leg EB - #1685,0,199,
43.035026,0,682,-81.254038,,,,,Fanshawe & Adelaide St EB - #682,0,194,
42.942563,0,1963,-81.225428,,,,,Wellington & Southdale Rd NS NB - #1963,0,191,
42.937583,0,1249,-81.208226,,,,,Osgoode & Adelaide St. FS EB - #1249,0,190,
42.985456,0,1501,-81.250388,,,,,Richmond & Queens Ave NB - #1501,0,193,
42.961193,0,1923,-81.230777,,,,,Wellington & Baseline Rd NS NB - #1923,0,192,
42.986345,0,2154,-81.230015,,,,,York & Adelaide St EB - #2154,0,2543,
42.99956,0,2152,-81.288807,,,,,Wychwood & Sleightholme Ave WB - #2152,0,2542,
42.999405,0,2151,-81.289132,,,,,Wychwood & Sleightholme Ave EB - #2151,0,2541,
42.987352,0,2159,-81.226344,,,,,York & Glebe St EB - #2159,0,2547,
42.984043,0,2157,-81.238324,,,,,York & Colborne St EB - #2157,0,2546,
42.982174,0,2156,-81.245385,,,,,York & Clarence WB - #2156,0,2545,
42.986415,0,2155,-81.230103,,,,,York & Adelaide St WB - #2155,0,2544,
42.986809,0,2161,-81.228349,,,,,York & Lyle St EB - #2161,0,2549,
42.987464,0,2160,-81.226267,,,,,York & Glebe St WB - #2160,0,2548,
42.944869,0,1687,-81.209276,,,,,Southdale & Millbank Dr W Leg FS - #1687,0,1105,
42.947788,0,1870,-81.274572,,,,,Viscount & Andover Dr FS 1 EB - #1870,0,2385,
42.94804,0,1871,-81.273285,,,,,Viscount & Andover Dr FS 2 EB - #1871,0,2387,
42.947845,0,2285,-81.274778,,,,,Viscount & Andover Dr NS 2 WB - #2285,0,2386,
42.948137,0,2286,-81.273276,,,,,Viscount & Andover Dr NS 1 WB - #2286,0,2388,
42.956908,0,2460,-81.275181,,,,,Beachwood & Gladman NS NB - #2460,0,3580,
42.954763,0,2468,-81.173716,,,,,Darnley & Meadowgate FS EB - #2468,0,3581,
42.989005,0,2493,-81.327212,,,,,Hyde Park & Sarnia FS NB - #2493,0,3582,
42.989282,0,2494,-81.32754,,,,,Hyde Park & Sarnia NS SB - #2494,0,3583,
43.028257,0,391,-81.197729,,,,,Chippewa & Appache Rd E Leg WB - #391,0,1452,
42.976781,0,1475,-81.246257,,,,,Richmond & Grey St SB - #1475,0,2127,
43.026565,0,392,-81.202334,,,,,Chippewa & Appache Rd W Leg WB - #392,0,1453,
42.989729,0,1267,-81.272972,,,,,Oxford & Britannia Ave WB - #1267,0,902,
42.988906,0,1271,-81.275677,,,,,Oxford & Cherryhill Blvd WB - #1271,0,903,
42.982727,0,966,-81.233841,,,,,Horton & Hamilton Road WB - #966,0,1849,
42.991005,0,1332,-81.268365,,,,,Oxford & Rathowen St WB - #1332,0,901,
42.983137,0,1269,-81.295367,,,,,Oxford & Capulet Lane WB - #1269,0,906,
42.981567,0,1318,-81.30059,,,,,Oxford & Laurel St. WB - #1318,0,907,
42.987331,0,1265,-81.280986,,,,,Oxford & Beaverbrook Ave NS WB - #1265,0,904,
42.986398,0,1264,-81.284148,,,,,Oxford & Beaverbrook Ave FS WB - #1264,0,905,
42.980049,0,1305,-81.305883,,,,,Oxford & Guildwood Blvd WB - #1305,0,908,
42.978637,0,1295,-81.310731,,,,,Oxford & Freele St WB - #1295,0,909,
42.981884,0,2239,-81.236955,,,,,Horton & Colborne St WB - #2239,0,1847,
42.979463,0,2238,-81.245334,,,,,Horton & Clarence St EB - #2238,0,1846,
42.968213,0,1551,-81.246732,,,,,Ridout & McKenzie Ave SB - #1551,0,2169,
42.968257,0,1550,-81.24663,,,,,Ridout & McKenzie Ave NB - #1550,0,2168,
42.975851,0,1547,-81.250566,,,,,Ridout & Ingleside Pl NB - #1547,0,2165,
42.962205,0,1545,-81.243574,,,,,Ridout & Hickson NB - #1545,0,2164,
42.981692,0,1549,-81.253626,,,,,Ridout & King St SB - #1549,0,2167,
42.975845,0,1548,-81.250641,,,,,Ridout & Ingleside Pl SB - #1548,0,2166,
42.965704,0,1542,-81.245383,,,,,Ridout & Garfield Ave NB - #1542,0,2161,
42.972601,0,1539,-81.248939,,,,,Ridout & Elmwood St SB - #1539,0,2160,
42.971037,0,1544,-81.248113,,,,,Ridout & Grand Ave NB - #1544,0,2163,
42.966023,0,1543,-81.245613,,,,,Ridout & Garfield Ave SB - #1543,0,2162,
42.933106,0,2242,-81.243455,,,,,Jalna & Bradley Ave NS 2 W Leg NB - #2242,0,1909,
42.934625,0,1045,-81.228346,,,,,Jalna & Bradley Ave NS E Leg SB - #1045,0,1906,
42.934874,0,1046,-81.228269,,,,,Jalna & Bradley Ave FS E Leg NB - #1046,0,1907,
42.935685,0,1043,-81.228522,,,,,Jalna & Beechmount Cr (S Leg) SB - #1043,0,1904,
42.933241,0,1044,-81.2283,,,,,Jalna & Bradley Ave NS E Leg NB - #1044,0,1905,
42.940752,0,1041,-81.230922,,,,,Jalna & Beechbank Cr (N Leg) SB - #1041,0,1902,
42.93665,0,1042,-81.228922,,,,,Jalna & Beechmount Cr (S Leg) NB - #1042,0,1903,
42.925083,0,1039,-81.23802,,,,,Jalna & Augusta Cr WB - #1039,0,1900,
42.940318,0,1040,-81.230124,,,,,Jalna & Beechbank Cr (S Leg) NB - #1040,0,1901,
42.988142,0,396,-81.167747,,,,,Clarke & Charterhouse SB - #396,0,854,
42.98371,0,405,-81.165357,,,,,Clarke & Firestone SB - #405,0,855,
43.000697,0,399,-81.173868,,,,,Clarke & Churchill Ave SB - #399,0,850,
42.996934,0,413,-81.172318,,,,,Clarke & Royal Cr N Leg SB - #413,0,851,
42.994076,0,416,-81.17083,,,,,Clarke & Sudbury SB - #416,0,852,
42.990993,0,419,-81.16926,,,,,Clarke & Trafalgar FS SB - #419,0,853,
42.981642,0,406,-81.164152,,,,,Clarke & Gore NB - #406,0,858,
42.983111,0,404,-81.164911,,,,,Clarke & Firestone Blvd NB - #404,0,859,
42.984565,0,1938,-81.245276,,,,,Wellington & Dundas St SB - #1938,0,6,
42.962818,0,1962,-81.231229,,,,,Wellington & Rowntree Ave NB - #1962,0,740,
42.96436,0,1929,-81.231661,,,,,Wellington & Chester St NB - #1929,0,741,
42.967398,0,1922,-81.232396,,,,,Wellington & Alexandra St NB - #1922,0,742,
42.968293,0,1961,-81.233614,,,,,Wellington & Raywood Ave NB - #1961,0,743,
42.968858,0,1925,-81.234644,,,,,Wellington & Bond St NB - #1925,0,744,
42.970589,0,1950,-81.236686,,,,,Wellington & McClary Ave NB - #1950,0,745,
42.972393,0,1942,-81.238086,,,,,Wellington & Grand Ave NB - #1942,0,746,
42.975691,0,1968,-81.240519,,,,,Wellington & South St NB - #1968,0,747,
42.976886,0,1946,-81.241115,,,,,Wellington & Hill St NB - #1946,0,748,
42.977663,0,1944,-81.241503,,,,,Wellington & Grey St NB - #1944,0,749,
43.016099,0,2083,-81.272653,,,,,Windermere & Richmond St EB - #2083,0,1050,
43.015204,0,1521,-81.270279,,,,,Richmond & Windermere Rd SB - #1521,0,1052,
43.008253,0,1989,-81.277301,,,,,Western & Elgin Dr FS 1 SB - #1989,0,1054,
43.005491,0,1996,-81.276961,,,,,Western & Lambton Dr SB - #1996,0,1055,
43.000384,0,1637,-81.282356,,,,,Sarnia & Brescia Lane WB - #1637,0,1057,
42.998918,0,1644,-81.287283,,,,,Sarnia & Sleightholme WB - #1644,0,1058,
42.997241,0,1641,-81.293041,,,,,Sarnia & Leyton Cres WB - #1641,0,1059,
42.993067,0,747,-81.204813,,,,,Florence & Oakland Ave WB - #747,0,1696,
43.024354,0,748,-81.218116,,,,,Fuller & Highbury Ave EB - #748,0,1697,
42.990585,0,745,-81.213424,,,,,Florence & Kellogg Lane WB - #745,0,1694,
42.992888,0,746,-81.204958,,,,,Florence & Oakland Ave EB - #746,0,1695,
42.988638,0,741,-81.218949,,,,,Florence & Fairgrounds S Gate WB - #741,0,1692,
42.990512,0,744,-81.213309,,,,,Florence & Kellogg Lane EB - #744,0,1693,
42.991649,0,739,-81.209703,,,,,Florence & Eleanor St WB - #739,0,1690,
42.988583,0,740,-81.218615,,,,,Florence & Fairgrounds S Gate EB - #740,0,1691,
42.938591,0,1258,-81.206426,,,,,Osgoode & Woodrow Cr N Leg EB - #1258,0,715,
43.022062,0,749,-81.225848,,,,,Fuller & McNay/Regal EB - #749,0,1698,
43.022911,0,751,-81.222931,,,,,Fuller & Vesta Rd EB - #751,0,1699,
42.961653,0,179,-81.233029,,,,,Base Line & Balderstone Ave WB - #179,0,1278,
42.940033,0,1402,-81.192238,,,,,Pond Mills & Bradley FS 1 SB - #1402,0,618,
42.935958,0,1405,-81.191411,,,,,Pond Mills & Buchanan Ct FS SB - #1405,0,619,
42.949414,0,165,-81.275703,,,,,Andover & Widmore NB - #165,0,1270,
42.95803,0,2191,-81.195208,,,,,Banbury & Cluney Place EB - #2191,0,1271,
42.929243,0,253,-81.212852,,,,,Bessemer & Hargrieve NB - #253,0,610,
42.932033,0,252,-81.211985,,,,,Bessemer & Bessemer Crt 2 NB - #252,0,611,
42.957363,0,2192,-81.19883,,,,,Banbury & Simms Ct EB - #2192,0,1274,
42.961111,0,177,-81.238505,,,,,Base Line & Averill Gate EB - #177,0,1276,
42.93529,0,1232,-81.201678,,,,,Newbold & Towerline EB - #1232,0,615,
42.937553,0,1251,-81.217407,,,,,Osgoode & Breckenridge Cr W Leg EB - #1251,0,711,
42.938917,0,2069,-81.218758,,,,,Willow & Osgoode Dr. EB - #2069,0,710,
42.990303,0,443,-81.241638,,,,,Colborne & Princess Ave NB - #443,0,1472,
42.997035,0,441,-81.245066,,,,,Colborne & Piccadilly  NB - #441,0,1470,
42.99633,0,442,-81.244841,,,,,Colborne & Piccadilly  SB - #442,0,1471,
42.959517,0,446,-81.214417,,,,,Commissioners & Adelaide St NS WB - #446,0,1476,
42.958643,0,447,-81.220485,,,,,Commissioners & Adelaide St FS WB - #447,0,1477,
42.959153,0,445,-81.2149,,,,,Commissioners & Adelaide EB - #445,0,1475,
42.958902,0,2214,-81.330089,,,,,Commissioners & Boler FS 2 EB - #2214,0,1478,
42.959432,0,2213,-81.332109,,,,,Commissioners & Boler FS 1 EB - #2213,0,1479,
42.95889,0,204,-81.279752,,,,,Base Line & Southwood Cres S Leg SB - #204,0,1304,
42.959286,0,205,-81.279797,,,,,Base Line & Southwood Cr -S Leg 3 N - #205,0,1305,
42.961772,0,206,-81.230042,,,,,Base Line & Wellington Rd FS 1 EB - #206,0,1307,
42.96133,0,200,-81.279697,,,,,Base Line & Robin Rd SB - #200,0,1300,
42.963825,0,201,-81.279546,,,,,Base Line & Southcrest Dr NB - #201,0,1301,
42.963647,0,202,-81.279589,,,,,Base Line & Southcrest SB - #202,0,1302,
42.95791,0,203,-81.278692,,,,,Base Line & Southwood Cr -S Leg 1 NB - #203,0,1303,
42.961943,0,207,-81.229961,,,,,Base Line & Wellington Rd NS WB - #207,0,1308,
42.961636,0,208,-81.231553,,,,,Base Line & Wellington Rd NS EB - #208,0,1309,
42.992144,0,2047,-81.265068,,,,,Wharncliffe & Oxford St SB - #2047,0,26,
42.982759,0,1600,-81.26198,,,,,Riverside & Wharncliffe EB - #1600,0,27,
42.984487,0,1939,-81.244884,,,,,Wellington & Dundas St NS NB - #1939,0,21,
43.007251,0,1013,-81.258524,,,,,Huron & Richmond St EB - #1013,0,22,
43.012606,0,39,-81.243443,,,,,Adelaide & Huron St 1 NB - #39,0,23,
42.983592,0,598,-81.250075,,,,,Dundas & Richmond St EB - #598,0,28,
42.984789,0,619,-81.245584,,,,,Dundas & Wellington NS EB - #619,0,29,
43.04059,0,2734,-81.236044,,,,,Fansahwe & Stackhouse WB - #2734,0,3935,
43.041596,0,,-81.231737,,,,,Fanshawe Park & McLean EB - #,0,3934,
42.985342,0,,-81.293364,,,,,Wonderland & Farrah NS NB - #,0,3933,
42.940563,0,503,-81.28821,,,,,Dalhousie & McMaster NS 1 NB - #503,0,1516,
42.970898,0,2653,-81.158681,,,,,Clarke & Hamilton FS NB - #2653,0,3841,
42.971194,0,2655,-81.163131,,,,,Hamilton & Crimson West Leg Eastbound - #2655,0,3840,
42.978243,0,2636,-81.162381,,,,,Clarke & Bayview FS NB - #2636,0,3843,
42.975383,0,2640,-81.160947,,,,,Clarke & Pension NB - #2640,0,3842,
42.978538,0,2637,-81.162646,,,,,Clarke & Bayview NS SB - #2637,0,3845,
42.980898,0,2638,-81.163876,,,,,Clarke & Gore NS SB - #2638,0,3844,
42.97066,0,2657,-81.159213,,,,,Hamilton & Clarke FS WB - #2657,0,3847,
42.97535,0,2639,-81.161051,,,,,Clarke & Pension SB - #2639,0,3846,
42.972893,0,2659,-81.167624,,,,,Hamilton & River Run NS WB - #2659,0,3849,
42.971267,0,2654,-81.163125,,,,,Hamilton & Crimson West Leg WB - #2654,0,3848,
42.975016,0,1748,-81.270079,,,,,Springbank & Springbank-Horton EB - #1748,0,2288,
42.967187,0,1749,-81.285715,,,,,Springbank & Trowbridge Ave WB - #1749,0,2289,
42.960397,0,1740,-81.299607,,,,,Springbank & Jarvis St EB - #1740,0,2280,
42.960018,0,1741,-81.300721,,,,,Springbank & Jarvis St WB - #1741,0,2281,
42.968861,0,1742,-81.282058,,,,,Springbank & Kernohan Pkwy EB - #1742,0,2282,
42.969429,0,1743,-81.281274,,,,,Springbank & Kernohan Pkwy WB - #1743,0,2283,
42.967616,0,1744,-81.284642,,,,,Springbank & Mary Ave EB - #1744,0,2284,
42.968086,0,1745,-81.283962,,,,,Springbank & Mary Ave WB - #1745,0,2285,
42.961586,0,1746,-81.2971,,,,,Springbank & Quinella Dr EB - #1746,0,2286,
42.961707,0,1747,-81.297108,,,,,Springbank & Quinella Dr WB - #1747,0,2287,
42.98227,0,2317,-81.230895,,,,,Hamilton & William St EB - #2317,0,2579,
42.959117,0,1857,-81.223662,,,,,Victoria Hospital & Western Counties EB - #1857,0,2375,
42.959493,0,2284,-81.226954,,,,,Victoria Hospital W of Zone C EB - #2284,0,2370,
42.959454,0,1854,-81.223182,,,,,Victoria Hospital & Commissioners NB - #1854,0,2371,
42.959952,0,1855,-81.228915,,,,,Victoria Hospital & Parking Lot 9 SB - #1855,0,2372,
42.961257,0,1856,-81.221941,,,,,Victoria Hospital & Medical Unit Building - #1856,0,2373,
42.982985,0,2336,-81.262124,,,,,Riverside & Wharncliffe NS WB - #2336,0,2594,
42.962439,0,2245,-81.206177,,,,,King Edward & Burlington Cres SB - #2245,0,2592,
43.017032,0,1004,-81.224996,,,,,Huron & Briarhill Rd FS EB - #1004,0,1876,
43.009233,0,1005,-81.25175,,,,,Huron & Colborne EB - #1005,0,1877,
43.016442,0,1003,-81.227542,,,,,Huron & Briarhill Rd WB - #1003,0,1874,
43.016243,0,2306,-81.227928,,,,,Huron & Briarhill Rd NS 1 EB - #2306,0,1875,
43.011463,0,995,-81.24411,,,,,Huron & Adelaide St EB - #995,0,1870,
43.011491,0,997,-81.244316,,,,,Huron & Adelaide St FS WB - #997,0,1871,
43.009652,0,1006,-81.250539,,,,,Huron & Fraser Ave WB - #1006,0,1878,
43.014432,0,1007,-81.23432,,,,,Huron & Gatewood Rd. WB - #1007,0,1879,
43.017581,0,1011,-81.223094,,,,,Huron & McNay St EB - #1011,0,977,
43.016689,0,1002,-81.22618,,,,,Huron & Briarhill Rd NS 2 EB - #1002,0,976,
43.01518,0,999,-81.232182,,,,,Huron & Barker WB - #999,0,975,
43.018891,0,1171,-81.231867,,,,,Melsandra & Sussex Cr WB - #1171,0,973,
43.019908,0,1170,-81.228117,,,,,Melsandra & Briarhill Ave WB - #1170,0,972,
43.020562,0,1159,-81.226064,,,,,McNay & Melsandra Ave SB - #1159,0,971,
43.022343,0,750,-81.225107,,,,,Fuller & Regal Drive WB - #750,0,970,
42.97461,0,21,-81.225615,,,,,Adelaide & Ada SB - #21,0,596,
43.016125,0,908,-81.213557,,,,,Highbury & Godfrey Dr SB - #908,0,979,
43.018366,0,1017,-81.22044,,,,,Huron & Vesta EB - #1017,0,978,
42.984471,0,1461,-81.250113,,,,,Richmond & Carling St NS SB - #1461,0,182,
42.98296,0,1980,-81.244476,,,,,Wellington & York St SB - #1980,0,183,
43.034771,0,684,-81.255542,,,,,Fanshawe & Adelaide St FS WB - #684,0,180,
43.032606,0,,-81.263924,,,,,Phillbrook & Fanshawe Park Rd SB - #,0,181,
42.94359,0,1703,-81.224377,,,,,Southdale & Wellington Rd FS 2 EB - #1703,0,186,
42.939237,0,66,-81.210169,,,,,Adelaide & Osgoode Dr - SW Leg NB - #66,0,187,
42.961977,0,1924,-81.231306,,,,,Wellington & Baseline Rd SB - #1924,0,184,
42.944319,0,1964,-81.226408,,,,,Wellington & Southdale Rd SB - #1964,0,185,
42.969025,0,1785,-81.2199,,,,,Thompson & Jacqueline St WB - #1785,0,2111,
42.926829,0,1940,-81.217786,,,,,Wellington & Exeter Rd NB - #1940,0,188,
42.988241,0,1446,-81.150232,,,,,Railton & Portsmouth Cr. W SB - #1446,0,2113,
42.990818,0,1447,-81.151272,,,,,Railton & Saddy Ave SB - #1447,0,2114,
42.940855,0,1054,-81.236717,,,,,Jalna & Ernest Ave E WB - #1054,0,1919,
42.92977,0,1048,-81.24294,,,,,Jalna & Cheswick Circle NB - #1048,0,1911,
42.936824,0,1050,-81.245692,,,,,Jalna & Colette Dr NB - #1050,0,1913,
42.924953,0,1049,-81.239608,,,,,Jalna & Clara Cr (W Leg) WB - #1049,0,1912,
42.934258,0,1051,-81.244643,,,,,Jalna & Erica Cr (South Leg) NB - #1051,0,1915,
42.994444,0,1445,-81.152093,,,,,Railton & Kennedy Place SB - #1445,0,2112,
42.933905,0,1053,-81.244384,,,,,Jalna & Erica Cr (South Leg) SB - #1053,0,1917,
42.936714,0,1052,-81.245736,,,,,Jalna & Erica Cr (North Leg) SB - #1052,0,1916,
43.006881,0,394,-81.176782,,,,,Clarke & Avalon NB - #394,0,869,
43.005365,0,402,-81.176055,,,,,Clarke & Dundas NB - #402,0,868,
42.987716,0,397,-81.16735,,,,,Clarke & Charterhouse Cr - S Leg NB - #397,0,861,
42.99043,0,395,-81.168805,,,,,Clarke & Charterhouse Cr - N Leg NB - #395,0,860,
42.993016,0,417,-81.170087,,,,,Clarke & Trafalgar NB - #417,0,862,
43.00102,0,398,-81.173848,,,,,Clarke & Churchill Ave NB - #398,0,865,
42.999051,0,420,-81.172879,,,,,Clarke & Wavell NB - #420,0,864,
43.00473,0,2251,-81.211838,,,,,Mornington & 590 Mornington EB - #2251,0,2024,
43.002639,0,2252,-81.213763,,,,,Mornington & Connaught Ave FS WB - #2252,0,2025,
43.00644,0,1214,-81.212786,,,,,Mornington & Oxford St FS 1 SB - #1214,0,2027,
43.003289,0,1208,-81.212212,,,,,Mornington & Connaught Ave NS WB - #1208,0,2020,
43.002531,0,1209,-81.217507,,,,,Mornington & Curry St WB - #1209,0,2022,
43.00138,0,1210,-81.221542,,,,,Mornington & Glasgow St WB - #1210,0,2023,
43.006934,0,1215,-81.212908,,,,,Mornington & Oxford St NS 2 NB - #1215,0,2028,
43.005277,0,1216,-81.212194,,,,,Mornington & Oxford St. FS 2 SB - #1216,0,2029,
42.983268,0,1080,-81.246265,,,,,King & Clarence EB - #1080,0,656,
43.006156,0,1279,-81.216871,,,,,Oxford & Clemens St WB - #1279,0,883,
43.007013,0,1323,-81.213901,,,,,Oxford & Oakside St WB - #1323,0,882,
43.00755,0,1362,-81.211851,,,,,Oxford & Wistow St WB - #1362,0,881,
43.008983,0,1310,-81.2073,,,,,Oxford & Highbury Ave NS WB - #1310,0,880,
43.003349,0,1347,-81.226471,,,,,Oxford & Sterling St WB - #1347,0,887,
43.003936,0,1330,-81.22446,,,,,Oxford & Quebec St WB - #1330,0,886,
43.004707,0,1349,-81.221764,,,,,Oxford & Stuart St WB - #1349,0,885,
43.005299,0,1319,-81.219749,,,,,Oxford & Lyman St WB - #1319,0,884,
43.001825,0,1288,-81.231662,,,,,Oxford & Elliott St WB - #1288,0,889,
43.002899,0,1297,-81.228015,,,,,Oxford & Gammage St WB - #1297,0,888,
42.979808,0,1948,-81.242895,,,,,Wellington & Horton St SB - #1948,0,657,
43.033409,0,711,-81.25933,,,,,Fanshawe & Stoneybrook Cr -E Leg EB - #711,0,775,
43.032203,0,713,-81.263454,,,,,Fanshawe & Stoneybrook Cr -W Leg EB - #713,0,774,
43.031429,0,55,-81.253063,,,,,Adelaide & Mapledale Ave SB - #55,0,776,
43.028239,0,705,-81.277573,,,,,Fanshawe & North Centre - NE Leg WB - #705,0,771,
43.028057,0,704,-81.277532,,,,,Fanshawe & North Centre - NS EB - #704,0,770,
43.031099,0,695,-81.267184,,,,,Fanshawe & Hastings Dr - SE Leg EB - #695,0,773,
43.030109,0,697,-81.2705,,,,,Fanshawe & Hastings Dr - W Leg EB - #697,0,772,
42.952296,0,390,-81.233496,,,,,Chiddington & Wilkins St NB - #390,0,77,
42.942628,0,608,-81.243814,,,,,Dundalk & Stockton St NB - #608,0,76,
42.931102,0,2296,-81.227399,,,,,Jalna & White Oaks Mall SB - #2296,0,72,
42.931158,0,2295,-81.227254,,,,,Jalna & White Oaks Mall NB - #2295,0,71,
42.942535,0,1691,-81.236357,,,,,Southdale & Ernest St EB - #1691,0,70,
42.981737,0,1524,-81.248598,,,,,Richmond & York St NB - #1524,0,79,
42.964715,0,1540,-81.244873,,,,,Ridout & Emery St NB - #1540,0,78,
42.99006,0,2097,-81.295692,,,,,Wonderland & Beaverbrook Ave NB - #2097,0,1043,
42.987627,0,2105,-81.294437,,,,,Wonderland & Farrah Rd FS 2 NB - #2105,0,1042,
42.986003,0,2103,-81.293578,,,,,Wonderland & Farrah Rd FS 1 NB - #2103,0,1041,
42.982517,0,2117,-81.29182,,,,,Wonderland & Oxford St NS NB - #2117,0,1040,
42.998833,0,1639,-81.287041,,,,,Sarnia & Castlegrove Blvd EB - #1639,0,1047,
42.997194,0,1643,-81.292838,,,,,Sarnia & Rippleton Ave EB - #1643,0,1046,
42.996142,0,1638,-81.296295,,,,,Sarnia & Castlegrove Blvd West EB - #1638,0,1045,
42.99512,0,2126,-81.298335,,,,,Wonderland & Sarnia Rd NS NB - #2126,0,1044,
43.000373,0,1640,-81.281972,,,,,Sarnia & Coombs Ave EB - #1640,0,1048,
42.992132,0,733,-81.20756,,,,,Florence & Ashland Ave EB - #733,0,1683,
42.992391,0,734,-81.207153,,,,,Florence & Ashland Ave WB - #734,0,1684,
42.989745,0,736,-81.21583,,,,,Florence & Egerton St EB - #736,0,1687,
42.991399,0,738,-81.210202,,,,,Florence & Eleanor St EB - #738,0,1689,
42.989892,0,737,-81.21581,,,,,Florence & Egerton St WB - #737,0,1688,
42.95356,0,161,-81.275802,,,,,Andover & Village Green SB - #161,0,1268,
42.953,0,1976,-81.22913,,,,,Wellington & Wilkins St NS SB - #1976,0,669,
42.956188,0,1972,-81.229893,,,,,Wellington & Waterman Ave SB - #1972,0,668,
42.951688,0,156,-81.275511,,,,,Andover & Elmgrove Cr SB - #156,0,1263,
42.955721,0,155,-81.275497,,,,,Andover & Commissioners SB - #155,0,1262,
42.955725,0,154,-81.275336,,,,,Andover & Commissioners NB - #154,0,1261,
42.949811,0,153,-81.275885,,,,,Andover & Blackthorne Cr S Leg SB - #153,0,1260,
42.966644,0,1955,-81.232367,,,,,Wellington & Moore St SB - #1955,0,663,
42.952839,0,158,-81.275472,,,,,Andover & Novello NB - #158,0,1265,
42.975173,0,1969,-81.240561,,,,,Wellington & South St SB - #1969,0,660,
43.004806,0,133,-81.317367,,,,,Aldersbrook & Ranchwood S Leg SB - #133,0,1242,
42.994842,0,440,-81.244053,,,,,Colborne & Pall Mall SB - #440,0,1469,
42.994937,0,439,-81.243983,,,,,Colborne & Pall Mall NB - #439,0,1468,
42.990934,0,436,-81.242065,,,,,Colborne & Hope St SB - #436,0,1464,
42.997293,0,438,-81.245316,,,,,Colborne & Oxford SB - #438,0,1467,
42.992253,0,433,-81.242789,,,,,Colborne & Central Ave SB - #433,0,1461,
42.992777,0,432,-81.242853,,,,,Colborne & Central Ave NB - #432,0,1460,
42.977897,0,435,-81.235331,,,,,Colborne & Hill St NB - #435,0,1463,
42.989251,0,434,-81.241198,,,,,Colborne & Dufferin Ave SB - #434,0,1462,
42.960609,0,217,-81.245298,,,,,Base Line & Wortley Rd EB - #217,0,1317,
42.958624,0,215,-81.26859,,,,,Base Line & West St NS 3 WB - #215,0,1316,
42.958764,0,214,-81.267069,,,,,Base Line & West St NS 2 WB - #214,0,1315,
42.958329,0,213,-81.271553,,,,,Base Line & West St NS EB - #213,0,1314,
42.959042,0,212,-81.264016,,,,,Base Line & West St NS 1 WB - #212,0,1313,
42.958703,0,211,-81.267666,,,,,Base Line & West St FS EB - #211,0,1312,
42.961786,0,210,-81.231501,,,,,Base Line & Wellington St FS WB - #210,0,1311,
42.961911,0,209,-81.228305,,,,,Base Line & Wellington St FS 2 EB - #209,0,1310,
42.957793,0,222,-81.275356,,,,,Beachwood & Base Line NB - #222,0,1319,
42.960615,0,218,-81.245981,,,,,Base Line & Wortley Rd WB - #218,0,1318,
43.027719,0,2179,-81.148702,,,,,London Airport Terminal - #2179,0,464,
42.960827,0,198,-81.24344,,,,,Base Line & Ridout St WB - #198,0,312,
42.960736,0,197,-81.243576,,,,,Base Line & Ridout St EB - #197,0,317,
42.948404,0,2288,-81.271095,,,,,Viscount & Notre Dame Dr. EB - #2288,0,315,
42.94825,0,1240,-81.270439,,,,,Notre Dame & Viscount Rd SB - #1240,0,314,
43.025437,0,1145,-81.281381,,,,,Masonville Terminal Stop #6 - #1145,0,1997_merged_921649,
43.025437,0,1145,-81.281381,,,,,Masonville Terminal & Stop #6 - #1145,0,1997_merged_921642,
42.98289,0,1762,-81.251709,,,,,Talbot & Dundas St. NB - #1762,0,2299,
42.956117,0,1753,-81.312954,,,,,Springbank & Westmount Dr FS WB - #1753,0,2293,
42.956933,0,1752,-81.3085,,,,,Springbank & Westmount Dr NS 2 EB - #1752,0,2292,
42.957248,0,1751,-81.307722,,,,,Springbank & Westmount Dr NS WB - #1751,0,2291,
42.956079,0,1750,-81.312829,,,,,Springbank & Westmount Dr NS 1 EB - #1750,0,2290,
42.978927,0,1760,-81.257107,,,,,Stanley & Wortley Rd EB - #1760,0,2297,
42.977719,0,1759,-81.261462,,,,,Stanley & Wharncliffe Rd EB - #1759,0,2296,
42.978172,0,1758,-81.259762,,,,,Stanley & Perry St EB - #1758,0,2295,
43.010887,0,1757,-81.333916,,,,,Stanton & Fanshawe Park Rd  SB - #1757,0,2294,
42.98529,0,1937,-81.245396,,,,,Wellington & Dundas St FS NB - #1937,0,2569,
42.985372,0,2175,-81.233601,,,,,York & William St EB - #2175,0,2561,
42.985708,0,2176,-81.232685,,,,,York & William St WB - #2176,0,2562,
42.947258,0,1852,-81.231175,,,,,Verulam & Eden St SB - #1852,0,2369,
42.970037,0,1850,-81.314657,,,,,Valetta & Woodborough St WB - #1850,0,2368,
42.97011,0,1849,-81.314576,,,,,Valetta & Woodborough St EB - #1849,0,2367,
42.975439,0,1848,-81.29854,,,,,Valetta & Shrene Terrace WB - #1848,0,2366,
42.975006,0,1847,-81.299449,,,,,Valetta & Shrene Terrace EB - #1847,0,2365,
42.972067,0,1846,-81.309793,,,,,Valetta & Salway Place EB - #1846,0,2364,
42.971028,0,1845,-81.313638,,,,,Valetta & Plantation Rd WB - #1845,0,2363,
42.971157,0,1844,-81.312919,,,,,Valetta & Plantation Rd EB - #1844,0,2362,
42.973202,0,1843,-81.30679,,,,,Valetta & Oak Park Dr EB - #1843,0,2361,
43.002719,0,2212,-81.174882,,,,,Clarke & Whitney SB - #2212,0,2587,
43.016439,0,2190,-81.290811,,,,,Ambleside & Grangeover WB - #2190,0,2584,
42.98248,0,2318,-81.231086,,,,,Hamilton & William St WB - #2318,0,2580,
43.028932,0,706,-81.274472,,,,,Fanshawe & North Centre Rd - FS EB - #706,0,2589,
42.976835,0,979,-81.260791,,,,,Horton & Wharncliffe Rd FS EB - #979,0,1861,
42.980351,0,978,-81.242012,,,,,Horton & Wellington St EB - #978,0,1860,
42.976569,0,981,-81.264939,,,,,Horton & Wharncliffe Rd NS EB - #981,0,1863,
42.976819,0,980,-81.263014,,,,,Horton & Wharncliffe Rd FS 1 WB - #980,0,1862,
42.977405,0,984,-81.25708,,,,,Horton & Wortley Rd WB - #984,0,1865,
42.924222,0,2528,-81.277947,,,,,Wonderland at Wharncliffe NB - #2528,0,3729,
42.991822,0,991,-81.156712,,,,,Hudson & Frobisher EB - #991,0,1867,
42.991818,0,990,-81.15844,,,,,Hudson & Baffin Place EB - #990,0,1866,
42.995616,0,993,-81.15591,,,,,Hudson & Trafalgar St NB - #993,0,1869,
42.994047,0,992,-81.155125,,,,,Hudson & Joliet St NB - #992,0,1868,
42.907747,0,2508,-81.299135,,,,,Col Talbot at Broadway NB - #2508,0,3726,
42.910348,0,2504,-81.29678,,,,,Main & Brainard EB - #2504,0,3727,
42.917457,0,2523,-81.284838,,,,,Wharncliffe at Savoy SB - #2523,0,3720,
42.912394,0,2522,-81.290943,,,,,Wharncliffe & Campbell - #2522,0,3721,
42.908825,0,2506,-81.290361,,,,,Campbell at Marianna SB - #2506,0,3722,
42.906921,0,2507,-81.289498,,,,,Campbell at Sunray SB - #2507,0,3723,
43.012418,0,916,-81.211375,,,,,Highbury & Landor St NB - #916,0,964,
43.014531,0,898,-81.212459,,,,,Highbury & Cheapside St NB - #898,0,965,
43.016829,0,907,-81.213651,,,,,Highbury & Godfrey Dr NB - #907,0,966,
43.02208,0,911,-81.216527,,,,,Highbury & Hillcrest Ave NB - #911,0,967,
42.990666,0,928,-81.200884,,,,,Highbury & Wilton Ave NB - #928,0,960,
42.993153,0,893,-81.202075,,,,,Highbury & Beattie Ave NB - #893,0,961,
43.003245,0,919,-81.206768,,,,,Highbury & RMHC (LPH) Access Road NB - #919,0,962,
43.007636,0,922,-81.20895,,,,,Highbury & Oxford St NS NB - #922,0,963,
43.023826,0,905,-81.217326,,,,,Highbury & Fuller Ave NB - #905,0,968,
43.023228,0,752,-81.222149,,,,,Fuller & Vesta Pl WB - #752,0,969,
43.025883,0,1143,-81.28161,,,,,Masonville Terminal & Stop #4 - #1143,0,47_merged_921648,
42.993921,0,1441,-81.219616,,,,,Quebec & Queens Ave NB - #1441,0,2109,
43.000372,0,1440,-81.222939,,,,,Quebec & Mornington Ave SB - #1440,0,2108,
42.99448,0,1434,-81.219981,,,,,Quebec & Dufferin Ave SB - #1434,0,2103,
42.984669,0,1432,-81.28764,,,,,Proudfoot & Oxford St NS NB - #1432,0,2100,
42.995327,0,1439,-81.220397,,,,,Quebec & Lorne Ave SB - #1439,0,2107,
42.995928,0,1438,-81.220581,,,,,Quebec & Lorne Ave NB - #1438,0,2106,
42.996906,0,1437,-81.221212,,,,,Quebec & Elias St SB - #1437,0,2105,
42.997177,0,1436,-81.221188,,,,,Quebec & Elias St NB - #1436,0,2104,
42.988586,0,537,-81.232139,,,,,Dundas & Adelaide St EB - #537,0,30,
43.004819,0,132,-81.317311,,,,,Aldersbrook & Ranchwood NB - #132,0,1241,
43.013179,0,1771,-81.19059,,,,,Third & Oxford NB - #1771,0,878,
43.010051,0,1336,-81.203514,,,,,Oxford & Roehampton Ave E Leg WB - #1336,0,879,
43.008742,0,500,-81.187181,,,,,Culver & Third St WB - #500,0,876,
43.011042,0,1769,-81.189523,,,,,Third & Culver Dr NB - #1769,0,877,
43.010385,0,497,-81.182804,,,,,Culver & Culver Cres. WB - #497,0,874,
43.012837,0,493,-81.183469,,,,,Culver & Clarke Rd FS 2 WB - #493,0,872,
43.013992,0,494,-81.180842,,,,,Culver & Clarke Rd FS 1 WB - #494,0,873,
43.008731,0,410,-81.177735,,,,,Clarke & Parkhurst NB - #410,0,870,
43.011092,0,409,-81.178909,,,,,Clarke & Pacific NB - #409,0,871,
42.946199,0,1235,-81.237585,,,,,Nixon & Eden St. NB - #1235,0,2037,
42.944628,0,1234,-81.237278,,,,,Nixon & Creston Ave. SB - #1234,0,2036,
42.944942,0,1233,-81.237277,,,,,Nixon & Creston Ave. NB - #1233,0,2035,
42.995874,0,1227,-81.140651,,,,,Neptune & Sovereign Rd FS 2 N Leg N - #1227,0,2034,
42.989696,0,1226,-81.137591,,,,,Neptune & Sovereign Rd FS 1 S Leg N - #1226,0,2033,
42.993231,0,1225,-81.13926,,,,,Neptune & 342 Neptune NB - #1225,0,2032,
43.001751,0,1219,-81.219938,,,,,Mornington & Strand St EB - #1219,0,2030,
42.972808,0,2260,-81.21007,,,,,Pond Mills & Thompson - #2260,0,9,
42.986642,0,533,-81.250059,,,,,Dufferin & Richmond St WB - #533,0,1533,
42.943656,0,1237,-81.23695,,,,,Nixon & Wimblest Ave. NB - #1237,0,2039,
42.943059,0,1236,-81.236891,,,,,Nixon & Southdale Rd SB - #1236,0,2038,
43.00104,0,1286,-81.234328,,,,,Oxford & Elizabeth St WB - #1286,0,890,
42.999381,0,1361,-81.240321,,,,,Oxford & William St WB - #1361,0,891,
42.998552,0,1321,-81.243088,,,,,Oxford & Maitland St WB - #1321,0,892,
42.997886,0,1281,-81.245338,,,,,Oxford & Colborne St WB - #1281,0,893,
42.997142,0,1355,-81.247865,,,,,Oxford & Waterloo St WB - #1355,0,894,
42.996245,0,1357,-81.250872,,,,,Oxford & Wellington St WB - #1357,0,895,
42.994758,0,1299,-81.255944,,,,,Oxford & St. George St WB - #1299,0,896,
42.994224,0,1351,-81.257846,,,,,Oxford & Talbot St WB - #1351,0,897,
42.992617,0,1303,-81.262911,,,,,Oxford & Grace St WB - #1303,0,898,
42.992133,0,1359,-81.264637,,,,,Oxford & Wharncliffe Rd WB - #1359,0,899,
42.99594,0,137,-81.314252,,,,,Aldersbrook & Springett Crt NB - #137,0,1246,
42.926519,0,2492,-81.203194,,,,,Sise & Wilton Grove FS SB - #2492,0,3545,
42.922103,0,2490,-81.202517,,,,,Sise & Green Valley NS SB - #2490,0,3546,
42.919576,0,2488,-81.20377,,,,,Roxburgh & Castleton NS WB - #2488,0,3547,
42.962849,0,2485,-81.180444,,,,,Meadowgate & Reardon NS SB - #2485,0,3548,
42.960995,0,2483,-81.180924,,,,,Meadowgate & Evans NS SB - #2483,0,3549,
42.999634,0,1108,-81.304529,,,,,Lawson & Banting Cr (East Leg) WB - #1108,0,1964,
43.025883,0,1143,-81.28161,,,,,Masonville Terminal Stop #4 - #1143,0,47_merged_921655,
42.997874,0,1109,-81.306513,,,,,Lawson & Denlaw Rd EB - #1109,0,1965,
42.99789,0,1110,-81.306596,,,,,Lawson & Limberlost Rd WB - #1110,0,1966,
43.027429,0,709,-81.27953,,,,,Fanshawe & Richmond St FS EB - #709,0,769,
43.007342,0,1481,-81.259406,,,,,Richmond & Huron St NB - #1481,0,762,
43.005869,0,618,-81.171576,,,,,Dundas & Wavell St NS EB - #618,0,1612,
42.976754,0,866,-81.187744,,,,,Hamilton & Meadowlilly Rd NS EB - #866,0,1782,
43.005693,0,1506,-81.25836,,,,,Richmond & Regent St NB - #1506,0,761,
43.019282,0,1460,-81.277079,,,,,Richmond & Canterbury NB - #1460,0,766,
43.02172,0,1511,-81.279942,,,,,Richmond & Sunnyside Dr NB - #1511,0,767,
43.016808,0,1520,-81.272741,,,,,Richmond & Windermere Rd FS NB - #1520,0,764,
42.985037,0,622,-81.244492,,,,,Dundas & Wellington St FS Shelter 1 - #622,0,1613,
42.999543,0,1107,-81.304563,,,,,Lawson & Banting Cr (West Leg) EB - #1107,0,1963,
42.944487,0,2114,-81.288397,,,,,Wonderland & McMaster Dr NS SB - #2114,0,1078,
42.942987,0,2112,-81.2865,,,,,Wonderland & McMaster Dr FS SB - #2112,0,1079,
42.946911,0,1893,-81.289895,,,,,Viscount & Wonderland Rd NS 2 EB - #1893,0,1077,
42.951463,0,2136,-81.290115,,,,,Wonderland & Village Green Ave SB - #2136,0,1074,
42.947805,0,2305,-81.28928,,,,,Wonderland & Viscount Rd NS 2 SB - #2305,0,1075,
42.959699,0,2197,-81.288285,,,,,Berkshire & Berkshire Crt WB - #2197,0,1072,
42.959593,0,1766,-81.290176,,,,,Teeple & Melcrest Rd. WB - #1766,0,1073,
42.959659,0,247,-81.283837,,,,,Berkshire & Topping Lane SB - #247,0,1070,
42.959551,0,249,-81.286067,,,,,Berkshire & Westmorland WB - #249,0,1071,
42.986899,0,717,-81.289859,,,,,Farrah & Proudfoot Lane EB - #717,0,1675,
43.026276,0,707,-81.284527,,,,,Fanshawe & North Centre NW Leg WB - #707,0,1670,
43.026344,0,710,-81.283597,,,,,Fanshawe & Richmond St NS EB - #710,0,1671,
42.94127,0,715,-81.296345,,,,,Farnham & Barclay Rd SB - #715,0,1672,
42.939333,0,716,-81.295225,,,,,Farnham & Farnham Crt SB - #716,0,1673,
42.943068,0,1700,-81.229588,,,,,Southdale & Verulam St EB - #1700,0,1094,
42.942647,0,1205,-81.227678,,,,,Montgomery & Southdale Road SB - #1205,0,1095,
42.93909,0,1203,-81.2268,,,,,Montgomery & Montgomery Gate SB - #1203,0,1096,
42.934734,0,1198,-81.225847,,,,,Montgomery & Bradley Ave SB - #1198,0,1097,
42.946786,0,1180,-81.211933,,,,,Millbank & Downing Cr (N Leg) NB - #1180,0,678,
42.948279,0,1195,-81.21163,,,,,Millbank & Stanhope Cres S Leg NB - #1195,0,679,
42.942378,0,,-81.237243,,,,,Southdale & Nixon Ave EB - #,0,1092,
42.942844,0,1677,-81.232309,,,,,Southdale & Easy St EB - #1677,0,1093,
42.936868,0,1953,-81.224381,,,,,Wellington & Montgomery Gate FS SB - #1953,0,674,
42.943924,0,1711,-81.220704,,,,,Southdale & Willow Dr EB - #1711,0,675,
42.944433,0,1666,-81.21403,,,,,Southdale & Adelaide St. EB - #1666,0,676,
42.945211,0,1188,-81.21175,,,,,Millbank & Southdale Road NB - #1188,0,677,
42.951023,0,1978,-81.228688,,,,,Wellington & Wilkins St FS SB - #1978,0,670,
42.94844,0,1956,-81.228036,,,,,Wellington & Nadine/Creston NS 1 SB - #1956,0,671,
42.946946,0,1957,-81.227657,,,,,Wellington & Nadine/Creston NS 2 SB - #1957,0,672,
42.939705,0,1954,-81.225036,,,,,Wellington & Montgomery Gt. NS SB - #1954,0,673,
42.936267,0,2335,-81.201488,,,,,Newbold & Bradley NB - #2335,0,645,
43.003757,0,352,-81.248777,,,,,Cheapside & Colborne EB - #352,0,1418,
43.003974,0,353,-81.248369,,,,,Cheapside & Colborne WB - #353,0,1419,
43.006567,0,346,-81.23826,,,,,Cheapside & Adelaide NS WB - #346,0,1411,
43.010732,0,347,-81.223778,,,,,Cheapside & Appel EB - #347,0,1412,
43.009427,0,348,-81.22825,,,,,Cheapside & Barker EB - #348,0,1413,
43.010127,0,349,-81.225877,,,,,Cheapside & Boullee EB - #349,0,1414,
43.010344,0,350,-81.225389,,,,,Cheapside & Boullee WB - #350,0,1415,
43.007764,0,351,-81.233993,,,,,Cheapside & Brampton EB - #351,0,1416,
43.007864,0,2209,-81.233979,,,,,Cheapside & Brampton WB - #2209,0,1417,
42.990733,0,225,-81.292312,,,,,Beaverbrook & Horizon WB - #225,0,1322,
42.987086,0,226,-81.281034,,,,,Beaverbrook & Oxford NB - #226,0,1323,
42.957706,0,223,-81.275411,,,,,Beachwood & Base Line SB - #223,0,1320,
42.989057,0,224,-81.298029,,,,,Beaverbrook & Blythwood Blvd WB - #224,0,1321,
43.02153,0,229,-81.199744,,,,,Beckworth & Lancaster EB - #229,0,1326,
43.022025,0,230,-81.197964,,,,,Beckworth & Langton EB - #230,0,1327,
42.986911,0,227,-81.281009,,,,,Beaverbrook & Oxford SB - #227,0,1324,
42.990017,0,228,-81.294785,,,,,Beaverbrook & Wonderland WB - #228,0,1325,
43.021237,0,231,-81.193988,,,,,Beckworth & Sorrel EB - #231,0,1328,
43.02084,0,232,-81.202245,,,,,Beckworth & Toukay Cr EB - #232,0,1329,
43.019798,0,149,-81.292995,,,,,Ambleside & Whitehaven - E Leg WB - #149,0,1256,
43.021005,0,150,-81.294306,,,,,Ambleside & Whitehaven - W Leg WB - #150,0,1257,
43.017645,0,147,-81.280695,,,,,Ambleside & Hillside WB - #147,0,1254,
43.020554,0,523,-81.267587,,,,,Doon & Ravine Ridge Way WB - #523,0,1527,
42.961243,0,513,-81.194917,,,,,Deveron & Commissioners Rd NB - #513,0,1520,
42.958198,0,515,-81.191384,,,,,Deveron & Edgemere Cres - N Leg SB - #515,0,1521,
42.955993,0,516,-81.192396,,,,,Deveron & Edgemere Cres - S Leg SB - #516,0,1522,
43.016358,0,145,-81.285108,,,,,Ambleside & Grasmere Cr WB - #145,0,1251,
43.021353,0,524,-81.266953,,,,,Doon & RavineRidge Cres WB - #524,0,1528,
43.022169,0,525,-81.264278,,,,,Doon & Sunnyside Dr WB - #525,0,1529,
42.954252,0,152,-81.275796,,,,,Andover & Applegreen Grove SB - #152,0,1259,
42.963263,0,2311,-81.18815,,,,,COMMISSIONER & HIGHBURY - #2311,0,309,
42.959333,0,1768,-81.292515,,,,,Teeple & Old Wonderland Rd WB - #1768,0,300,
42.953736,0,2101,-81.290681,,,,,Wonderland & Commissioners Rd SB - #2101,0,301,
42.93886,0,501,-81.291336,,,,,Dalhousie & Brixham EB - #501,0,303,
42.955837,0,2102,-81.290977,,,,,Wonderland & Commissioners Rd FS NB - #2102,0,305,
42.959406,0,1767,-81.291106,,,,,Teeple & Old Wonderland Rd EB - #1767,0,306,
42.962908,0,759,-81.284862,,,,,Gardenwood & Berkshire Dr NB - #759,0,307,
42.989903,0,918,-81.200706,,,,,Highbury & Langmuir St SB - #918,0,988,
42.983478,0,927,-81.197678,,,,,Highbury & Trafalgar St. SB - #927,0,989,
42.991829,0,382,-81.273316,,,,,Cherryhill & Platts Lane WB - #382,0,1446,
42.993444,0,894,-81.202342,,,,,Highbury & Beattie Ave SB - #894,0,985,
42.968863,0,1840,-81.315273,,,,,Valetta & Hyde Park Rd WB - #1840,0,2358,
42.976409,0,1841,-81.294914,,,,,Valetta & Oakridge Dr EB - #1841,0,2359,
42.975337,0,1834,-81.303691,,,,,Valetta & Cramston Cres EB - #1834,0,2352,
42.974878,0,1835,-81.306085,,,,,Valetta & Deerpark Cr NS WB - #1835,0,2353,
42.975224,0,1832,-81.301735,,,,,Valetta & Adevon Ave WB - #1832,0,2350,
42.976208,0,1833,-81.295904,,,,,Valetta & Cayley Dr WB - #1833,0,2351,
42.972441,0,1838,-81.308761,,,,,Valetta & Hibicus Ave WB - #1838,0,2356,
42.968761,0,1839,-81.315413,,,,,Valetta & Hyde Park Rd EB - #1839,0,2357,
42.973494,0,1836,-81.306776,,,,,Valetta & Deerpark Cr FS WB - #1836,0,2354,
42.972508,0,1837,-81.30825,,,,,Valetta & Hibicus Ave EB - #1837,0,2355,
42.982383,0,1491,-81.248997,,,,,Richmond & King St SB - #1491,0,112,
42.926785,0,1038,-81.226881,,,,,Jalna & Archer Cres (SW leg) SB - #1038,0,1899,
42.974116,0,2545,-81.36311,,,,,Kains & Riverbend WB - #2545,0,3739,
42.972453,0,2542,-81.356629,,,,,Kains & Kirkpatrick NB - #2542,0,3738,
42.973192,0,2546,-81.357717,,,,,Kains & Summerville NB - #2546,0,3737,
42.965448,0,2532,-81.350985,,,,,Commissioners & Cadeau Terrace 2 WB - #2532,0,3736,
42.963896,0,2531,-81.347073,,,,,Commissioners & Cadeau Terrace 1 WB - #2531,0,3735,
42.963281,0,2536,-81.3438,,,,,Commissioners & Grandview WB - #2536,0,3734,
42.967763,0,2544,-81.355173,,,,,KAIN AT OXFORD SB - #2544,0,3733,
42.968622,0,2543,-81.35529,,,,,KAINS AT OXFORD NB - #2543,0,3732,
42.920983,0,2529,-81.28032,,,,,Wharncliffe at Bostwick NB - #2529,0,3731,
42.933917,0,2525,-81.280076,,,,,Wonderland at Bradley NB - #2525,0,3730,
43.010389,0,1498,-81.262793,,,,,Richmond & Parkdale Cres FS SB - #1498,0,2136,
42.993941,0,1350,-81.258169,,,,,Oxford & Talbot St EB - #1350,0,958,
43.011195,0,1497,-81.263629,,,,,Richmond & Parkdale Ave NS SB - #1497,0,2135,
42.982938,0,1490,-81.249175,,,,,Richmond & King St FS 1 NB - #1490,0,2132,
42.983272,0,2427,-81.249471,,,,,Richmond & King St FS 3 NB - #2427,0,2133,
42.978707,0,1480,-81.247083,,,,,Richmond & Horton St NS NB - #1480,0,2130,
42.988156,0,1489,-81.250752,,,,,Richmond & Kent St SB - #1489,0,2131,
42.987116,0,1263,-81.281374,,,,,Oxford & Beaverbrook Ave EB - #1263,0,951,
42.985262,0,1327,-81.287429,,,,,Oxford & Proudfoot Lane EB - #1327,0,950,
42.988555,0,1272,-81.276434,,,,,Oxford & Cherryhill Blvd NS 2 EB - #1272,0,953,
42.988137,0,1270,-81.277858,,,,,Oxford & Cherryhill Blvd NS 1 EB - #1270,0,952,
42.990925,0,1331,-81.268407,,,,,Oxford & Rathowen St EB - #1331,0,955,
42.989831,0,1266,-81.272053,,,,,Oxford & Britannia Ave EB - #1266,0,954,
43.012999,0,1503,-81.26554,,,,,Richmond & Raymond Ave NS SB - #1503,0,2138,
42.992073,0,1358,-81.264464,,,,,Oxford & Wharncliffe Rd EB - #1358,0,956,
43.011816,0,1155,-81.221157,,,,,McNay & Cheapside St SB - #1155,0,2002,
43.016992,0,1156,-81.223656,,,,,McNay & Huron St NB - #1156,0,2003,
42.94277,0,1153,-81.287626,,,,,McMaster & Wonderland Rd EB - #1153,0,2000,
43.015435,0,1160,-81.222881,,,,,McNay & Rock St NB - #1160,0,2006,
43.015513,0,1161,-81.222983,,,,,McNay & Rock St SB - #1161,0,2007,
43.01692,0,1157,-81.223727,,,,,McNay & Huron St SB - #1157,0,2004,
43.020656,0,1158,-81.226033,,,,,McNay & Melsandra Ave NB - #1158,0,2005,
43.014689,0,1162,-81.222497,,,,,McNay & Victoria Dr FS NB - #1162,0,2008,
43.013474,0,1163,-81.221978,,,,,McNay & Victoria SB - #1163,0,2009,
42.968871,0,1451,-81.228028,,,,,Raywood & Fairview Crt EB - #1451,0,2118,
42.955326,0,2466,-81.284038,,,,,Commissioners & Topping Lane FS WB - #2466,0,3557,
42.955854,0,2463,-81.279878,,,,,Commissioners & Beachwood FS 2 WB - #2463,0,3556,
42.958934,0,2476,-81.171508,,,,,Lighthouse & Emerald NS NB - #2476,0,3555,
42.956137,0,2461,-81.276837,,,,,Commissioners & Beachwood FS 1 WB - #2461,0,3554,
42.956891,0,2482,-81.179056,,,,,Meadowgate & Dormer FS SB - #2482,0,3551,
42.958945,0,2484,-81.181192,,,,,Meadowgate & Goodfellow FS SB - #2484,0,3550,
42.954366,0,2465,-81.289135,,,,,Commissioners & Forest Edge EB - #2465,0,3559,
42.954813,0,2464,-81.287851,,,,,Commissioners & Forest Edge WB - #2464,0,3558,
42.957854,0,1933,-81.230256,,,,,Wellington & Commissioners Rd FS SB - #1933,0,667,
42.959478,0,1932,-81.230688,,,,,Wellington & Commissioners Rd NS SB - #1932,0,666,
42.962511,0,1563,-81.323507,,,,,Riverside & St. Anthony Rd WB - #1563,0,2176,
42.963536,0,1958,-81.231625,,,,,Wellington & Percy St SB - #1958,0,665,
42.980089,0,1564,-81.278145,,,,,Riverside & Beaverbrook Ave EB - #1564,0,2177,
42.979134,0,884,-81.204082,,,,,Hamilton & St. Julien St WB - #884,0,1799,
42.97908,0,883,-81.204402,,,,,Hamilton & St. Julien St EB - #883,0,1798,
42.938394,0,1177,-81.200185,,,,,Millbank & Bexhill Drive (S Leg) NB - #1177,0,719,
42.937301,0,168,-81.202254,,,,,Ashbury & Millbank EB - #168,0,718,
42.938244,0,171,-81.2043,,,,,Ashbury & Surrey Cres- N Leg SB - #171,0,717,
42.953684,0,160,-81.275744,,,,,Andover & Village Green NB - #160,0,1267,
42.980659,0,875,-81.220012,,,,,Hamilton & Rectory St WB - #875,0,1791,
42.98062,0,874,-81.22053,,,,,Hamilton & Rectory St EB - #874,0,1790,
42.937955,0,1254,-81.213015,,,,,Osgoode & Kinburn Cres. EB - #1254,0,713,
42.937637,0,1257,-81.215597,,,,,Osgoode & Metcalfe Cr. E Leg EB - #1257,0,712,
42.980438,0,880,-81.215361,,,,,Hamilton & Sackville St WB - #880,0,1795,
42.98031,0,879,-81.214333,,,,,Hamilton & Sackville St EB - #879,0,1794,
42.972119,0,1943,-81.23806,,,,,Wellington & Grand Ave SB - #1943,0,661,
42.939373,0,528,-81.204839,,,,,Dow & Ashbury Ave EB - #528,0,716,
42.981044,0,1565,-81.276047,,,,,Riverside & Beaverbrook Ave NS WB - #1565,0,2178,
42.961183,0,243,-81.283003,,,,,Berkshire & Robin Rd SB - #243,0,1069,
42.963902,0,245,-81.290635,,,,,Berkshire & Springbank SB - #245,0,1068,
42.980225,0,1566,-81.277985,,,,,Riverside & Beaverbrook Ave FS WB - #1566,0,2179,
42.997012,0,2127,-81.299648,,,,,Wonderland & Sarnia Rd NS SB - #2127,0,1061,
42.9963,0,1642,-81.296312,,,,,Sarnia & Middlewoods Cr WB - #1642,0,1060,
42.989438,0,2098,-81.295648,,,,,Wonderland & Beaverbrook Ave SB - #2098,0,1062,
42.984199,0,2116,-81.292946,,,,,Wonderland & Oxford St NS SB - #2116,0,1065,
42.985811,0,2104,-81.293766,,,,,Wonderland & Farrah Rd NS 2 SB - #2104,0,1064,
42.976033,0,2123,-81.290474,,,,,Wonderland & Riverside Dr SB - #2123,0,1067,
42.979114,0,2109,-81.290392,,,,,Wonderland & Kingsway Ave SB - #2109,0,1066,
43.024713,0,702,-81.289437,,,,,Fanshawe & Louise Blvd WB - #702,0,1669,
43.024436,0,701,-81.289879,,,,,Fanshawe & Louise Blvd EB - #701,0,1668,
43.042919,0,698,-81.227496,,,,,Fanshawe & Highbury Ave EB - #698,0,1667,
42.93947,0,529,-81.205079,,,,,Dow & Ashbury Ave WB - #529,0,690,
42.966166,0,679,-81.22705,,,,,Fairview & Whetter Ave SB - #679,0,1665,
42.967765,0,678,-81.227328,,,,,Fairview & Fairview Crt NB - #678,0,1664,
42.964703,0,677,-81.226708,,,,,Fairview & Chester St SB - #677,0,1663,
42.964915,0,676,-81.226677,,,,,Fairview & Chester St NB - #676,0,1662,
42.962577,0,675,-81.226146,,,,,Fairview & Base Line Rd NB - #675,0,1661,
42.967803,0,674,-81.227457,,,,,Fairview & Alexandra St SB - #674,0,1660,
42.940758,0,1708,-81.256515,,,,,Southdale & Wharncliffe Rd FS EB - #1708,0,1087,
42.940169,0,2337,-81.264911,,,,,Southdale & Notre Dame Dr FS EB - #2337,0,1085,
42.940031,0,1694,-81.266737,,,,,Southdale & Notre Dame Dr NS EB - #1694,0,1084,
42.939594,0,1668,-81.272625,,,,,Southdale & Andover Dr.  EB - #1668,0,1083,
42.939118,0,1713,-81.279296,,,,,Southdale & Wonderland Rd EB - #1713,0,1082,
42.940825,0,2121,-81.281937,,,,,Wonderland & Pine Valley Lane SB - #2121,0,1081,
42.942327,0,2120,-81.283654,,,,,Wonderland & Pine Valley Blvd SB - #2120,0,1080,
42.99494,0,23,-81.234663,,,,,Adelaide & Central Ave SB - #23,0,599,
42.994567,0,22,-81.234344,,,,,Adelaide & Central Ave NB - #22,0,598,
42.941561,0,2277,-81.246645,,,,,Southdale & Jalna Blvd NS 1 EB - #2277,0,1089,
42.941108,0,1710,-81.252669,,,,,Southdale & White Oak Sideroad EB - #1710,0,1088,
43.022768,0,522,-81.260646,,,,,Doon & Muskoka Cres SB - #522,0,1526,
43.038329,0,343,-81.270524,,,,,Chambers & Whisker St SB - #343,0,1409,
43.041719,0,342,-81.271282,,,,,Chambers & Skyline Ave NB - #342,0,1408,
42.970601,0,336,-81.254468,,,,,Cathcart & Elmwood NB - #336,0,1402,
42.963072,0,334,-81.253339,,,,,Cathcart & Devonshire NB - #334,0,1400,
43.039748,0,341,-81.270162,,,,,Chambers & Sandybrook NB - #341,0,1407,
42.967892,0,340,-81.254039,,,,,Cathcart & Tecumseh NB - #340,0,1406,
42.965372,0,339,-81.253657,,,,,Cathcart & Langarth NB - #339,0,1405,
43.043968,0,255,-81.258899,,,,,Blackwater & Adelaide St FS EB - #255,0,1338,
42.947323,0,237,-81.259069,,,,,Belmont & Wharncliffe EB - #237,0,1334,
42.959633,0,246,-81.283813,,,,,Berkshire & Topping Lane NB - #246,0,1337,
42.947155,0,234,-81.261834,,,,,Belmont & Hillsborough EB - #234,0,1331,
43.02187,0,233,-81.196218,,,,,Beckworth & Tudor EB - #233,0,1330,
42.946828,0,236,-81.264574,,,,,Belmont & St Lawrence EB - #236,0,1333,
42.946298,0,235,-81.26779,,,,,Belmont & Notre Dame EB - #235,0,1332,
42.938269,0,1259,-81.206641,,,,,Osgoode & Woodrow Cr N Leg WB - #1259,0,691,
42.938281,0,508,-81.22172,,,,,Dearness & Willow Lane SB - #508,0,696,
42.936711,0,507,-81.221339,,,,,Dearness & Dunelm Ln SB - #507,0,697,
43.002898,0,2731,-81.173514,,,,,Argyle Mall W side SB - #2731,0,39,
42.93763,0,1252,-81.217447,,,,,Osgoode & Breckenridge Cr W Leg WB - #1252,0,694,
42.998256,0,421,-81.172885,,,,,Clarke & Wavell SB - #421,0,33,
43.003052,0,167,-81.173675,,,,,Argyle Mall E Side NB - #167,0,32,
42.996596,0,577,-81.204339,,,,,Dundas & Highbury  EB - #577,0,31,
42.995535,0,542,-81.208574,,,,,Dundas & Ashland Ave NS WB - #542,0,1541,
42.99612,0,1796,-81.157048,,,,,Trafalgar & Hudson FS 1 WB - #1796,0,36,
42.995507,0,1797,-81.159215,,,,,Trafalgar & Hudson FS 2 WB - #1797,0,35,
43.008767,0,281,-81.158322,,,,,Bonaventure & Dundas SB - #281,0,34,
43.01013,0,2315,-81.156588,,,,,Dundas & Veterans Memorial Parkway W - #2315,0,1537,
43.009974,0,2314,-81.156251,,,,,Dundas & Vetrans Memorial Parkway E - #2314,0,1536,
42.987512,0,536,-81.246954,,,,,Dufferin & Wellington St FS WB - #536,0,1535,
42.987807,0,535,-81.245999,,,,,Dufferin & Wellington St NS WB - #535,0,1534,
42.99338,0,136,-81.307674,,,,,Aldersbrook & Southcott Crt WB - #136,0,1245,
42.987954,0,532,-81.244986,,,,,Dufferin & Picton St EB - #532,0,1532,
42.988828,0,531,-81.241878,,,,,Dufferin & Colborne St EB - #531,0,1531,
43.018348,0,527,-81.266341,,,,,Doon & Windemere Rd SB - #527,0,1530,
43.014636,0,139,-81.315914,,,,,Aldersbrook & Winding Woods EB - #139,0,1248,
42.995315,0,540,-81.209085,,,,,Dundas & Ashland Ave EB - #540,0,1539,
43.006433,0,539,-81.1702,,,,,Dundas & Arvilla Blvd WB - #539,0,1538,
42.984154,0,1462,-81.24999,,,,,Richmond & Carling St FS SB - #1462,0,335,
42.982917,0,1979,-81.244106,,,,,Wellington & York St NB - #1979,0,334,
43.019826,0,1010,-81.21617,,,,,Huron & Highbury FS WB - #1010,0,337,
42.932977,0,1047,-81.228337,,,,,Jalna & Bradley Ave FS E Leg SB - #1047,0,330,
42.953883,0,951,-81.258879,,,,,Highview & Wharncliffe Rd NS 2 WB - #951,0,332,
42.971201,0,642,-81.250563,,,,,Elmwood & Marley Place WB - #642,0,1634,
43.003185,0,2685,-81.334084,,,,,Hyde Park & North Routledge Park N Leg NB - #2685,0,3892,
43.003538,0,2686,-81.334617,,,,,Hyde Park & North Routledge Park N Leg SB - #2686,0,3893,
43.000982,0,2687,-81.333294,,,,,Hyde Park & North Routledge Park S Leg SB - #2687,0,3891,
43.046612,0,2698,-81.261006,,,,,Sunningdale & Adelaide WB - #2698,0,3896,
42.972636,0,2688,-81.274765,,,,,Springbank & Forest Hill WB - #2688,0,3894,
42.941826,0,2689,-81.225455,,,,,Wellington & Harlech Gt SB - #2689,0,3895,
42.999298,0,2398,-81.33237,,,,,Hyde Park & Gainsborough SB - #2398,0,3467,
42.999555,0,2397,-81.332379,,,,,Hyde Park & Gainsborough NB - #2397,0,3466,
42.962324,0,449,-81.194459,,,,,Commissioners & Deveron FS EB - #449,0,1111,
43.020279,0,2349,-81.215671,,,,,HURON & HIGHBURY - #2349,0,3465,
42.975895,0,2350,-81.32002,,,,,OXFORD & HYDE PARK - #2350,0,3464,
42.968377,0,1776,-81.221932,,,,,Thompson & Adelaide St FS EB - #1776,0,8,
42.968701,0,1452,-81.230363,,,,,Raywood & Trevithen St EB - #1452,0,2119,
42.963584,0,644,-81.270317,,,,,Emery & Highwood Ave EB - #644,0,1636,
42.983768,0,2390,-81.296612,,,,,Capulet Lane & Oxford SB - #2390,0,3469,
42.957062,0,1827,-81.24153,,,,,Upper Queens & Commissioners Rd SB - #1827,0,2345,
42.957458,0,1826,-81.241439,,,,,Upper Queens & Commissioners Rd NB - #1826,0,2344,
42.95352,0,1825,-81.240689,,,,,Upper Queens & Chiddington Ave NS SB - #1825,0,2343,
43.012276,0,268,-81.319296,,,,,Blackacres & Winding Way - W Leg EB - #268,0,1350,
43.018567,0,2516,-81.309713,,,,,Fanshawe & Wonderland EB - #2516,0,3708,
43.0189,0,2517,-81.309473,,,,,Fanshawe & Wonderland WB - #2517,0,3709,
43.022156,0,1023,-81.207571,,,,,Huron & Webster St FS EB - #1023,0,1889,
43.021579,0,1022,-81.209919,,,,,Huron & Webster St. WB - #1022,0,1888,
43.021481,0,1021,-81.209843,,,,,Huron & Webster St NS EB - #1021,0,1887,
43.00868,0,1020,-81.253797,,,,,Huron & Waterloo St WB - #1020,0,1886,
43.008409,0,1019,-81.254524,,,,,Huron & Waterloo St EB - #1019,0,1885,
43.018876,0,1018,-81.219421,,,,,Huron & Vesta WB - #1018,0,1884,
43.022613,0,1016,-81.206383,,,,,Huron & Sandford St WB - #1016,0,1882,
43.022767,0,1015,-81.205444,,,,,Huron & Sandford St EB - #1015,0,1881,
43.017229,0,1012,-81.224919,,,,,Huron & McNay St WB - #1012,0,1880,
42.968442,0,1453,-81.233478,,,,,Raywood & Wellington Rd EB - #1453,0,2120,
43.008797,0,1455,-81.247692,,,,,Regent & Maitland St WB - #1455,0,2123,
42.962015,0,1454,-81.176893,,,,,Reardon & Rothwell Drive WB - #1454,0,2122,
43.009425,0,1456,-81.245384,,,,,Regent & William St EB - #1456,0,2124,
42.98131,0,1317,-81.300912,,,,,Oxford & Laruel St EB - #1317,0,948,
42.982657,0,1268,-81.296316,,,,,Oxford & Capulet Lane EB - #1268,0,949,
42.978416,0,1294,-81.310941,,,,,Oxford & Freele St EB - #1294,0,946,
42.979571,0,1316,-81.30685,,,,,Oxford & Juniper St EB - #1316,0,947,
42.976309,0,1291,-81.318179,,,,,Oxford & Fiddlers Green Rd EB - #1291,0,944,
42.97745,0,1304,-81.314125,,,,,Oxford & Guildwood Gate EB - #1304,0,945,
42.971772,0,1026,-81.316912,,,,,Hyde Park & Fiddlers Green Rd NB - #1026,0,942,
42.97504,0,1029,-81.320034,,,,,Hyde Park & Oxford St NB - #1029,0,943,
42.962934,0,1581,-81.318488,,,,,Riverside & Hartson Rd E Leg EB - #1581,0,940,
42.965014,0,1031,-81.315052,,,,,Hyde Park & Riverside Drive NB - #1031,0,941,
42.947173,0,1891,-81.288021,,,,,Viscount & Wonderland Rd FS EB - #1891,0,2410,
42.993911,0,1636,-81.30438,,,,,Sarnia & Aldersbrook Rd   WB - #1636,0,131,
43.001328,0,1646,-81.278769,,,,,Sarnia & Western Rd EB - #1646,0,137,
42.995184,0,1648,-81.299556,,,,,Sarnia & Wonderland EB - #1648,0,136,
42.993777,0,1635,-81.304513,,,,,Sarnia & Aldersbrook Rd EB - #1635,0,135,
43.000417,0,2248,-81.301891,,,,,Lawson & Blue Forest EB - #2248,0,134,
42.990316,0,1392,-81.272041,,,,,Platts Lane & Oxford St SB - #1392,0,138,
43.003582,0,1207,-81.211879,,,,,Mornington & Connaught Ave EB - #1207,0,2019,
42.979914,0,1206,-81.179396,,,,,Montabello & Tweedsmuir Ave NB - #1206,0,2018,
42.978533,0,1199,-81.178654,,,,,Montabello & Fundy Ave NB - #1199,0,2015,
42.925303,0,1169,-81.232154,,,,,Meg & Exeter Rd SB - #1169,0,2014,
42.980502,0,1201,-81.180853,,,,,Montabello & Manitoulin Dr NB - #1201,0,2017,
42.977249,0,1200,-81.178022,,,,,Montabello & Gore Rd NB - #1200,0,2016,
42.963084,0,1165,-81.180223,,,,,Meadowgate & Reardon Blvd NB - #1165,0,2011,
43.013697,0,1164,-81.222006,,,,,McNay & Victoria Dr NS NB - #1164,0,2010,
42.925081,0,1168,-81.231996,,,,,Meg & Exeter Rd NB - #1168,0,2013,
43.041201,0,2479,-81.23199,,,,,McLean & Fanshawe FS SB - #2479,0,3563,
42.955281,0,2467,-81.283906,,,,,Commissioners & Topping Lane NS EB - #2467,0,3560,
42.955804,0,2462,-81.278701,,,,,Commissioners & Beachwood NS EB - #2462,0,3561,
43.031788,0,2472,-81.243471,,,,,Glenora & Glengarry WB - #2472,0,3567,
43.038699,0,2481,-81.232351,,,,,McLean & Wakefield FS WB - #2481,0,3564,
43.035027,0,2475,-81.236915,,,,,Glenora & Rideau Gt NS WB - #2475,0,3565,
43.030324,0,2473,-81.247323,,,,,Glenora & Glenview E Leg WB - #2473,0,3568,
43.029339,0,2471,-81.251166,,,,,Glenora & Adelaide NS WB - #2471,0,3569,
42.937012,0,506,-81.221301,,,,,Dearness & Dunelm Ln NB - #506,0,708,
42.938624,0,2068,-81.220898,,,,,Willow & Dearness Dr. EB - #2068,0,709,
42.933728,0,1928,-81.223039,,,,,Wellington & Bradley Ave NS NB - #1928,0,704,
42.935402,0,1926,-81.223744,,,,,Wellington & Bradley Ave FS NB - #1926,0,705,
42.939082,0,1952,-81.224643,,,,,Wellington & Montgomery Gate NB - #1952,0,706,
42.935217,0,505,-81.220893,,,,,Dearness & Bradley Ave NB - #505,0,707,
42.933922,0,1927,-81.223468,,,,,Wellington & Bradley Ave SB - #1927,0,700,
42.928343,0,955,-81.219316,,,,,Holiday & Greenfield Dr SB - #955,0,701,
42.926412,0,954,-81.218862,,,,,Holiday & Exeter Rd SB - #954,0,702,
42.931714,0,2061,-81.222633,,,,,White Oaks Mall Stop #2 - #2061,0,703,
42.97667,0,982,-81.265273,,,,,Horton & Wharncliffe Rd FS 2 WB - #982,0,88,
42.962481,0,241,-81.286307,,,,,Berkshire & Gardenwood NS SB - #241,0,89,
42.99992,0,1260,-81.237831,,,,,Oxford & Adelaide St EB - #1260,0,82,
43.013262,0,2225,-81.199206,,,,,Fanshawe College Stop 4 - #2225,0,83,
42.983559,0,1470,-81.249482,,,,,Richmond & Dundas St NS NB - #1470,0,80,
42.986938,0,1466,-81.250608,,,,,Richmond & Dufferin Ave NB - #1466,0,81,
42.980253,0,1558,-81.252896,,,,,Ridout & York St SB - #1558,0,87,
42.92479,0,670,-81.228489,,,,,Exeter & Meg Dr EB - #670,0,1658,
42.924966,0,671,-81.228259,,,,,Exeter & Sholto Dr WB - #671,0,1659,
42.931265,0,664,-81.235921,,,,,Ernest & Lacey Cres (North Leg) NB - #664,0,1652,
42.938013,0,665,-81.238457,,,,,Ernest & Muriel Cres (North Leg) NB - #665,0,1653,
42.940532,0,662,-81.237404,,,,,Ernest & Jalna Blvd North NB - #662,0,1650,
42.9407,0,663,-81.237401,,,,,Ernest & Jalna Blvd North SB - #663,0,1651,
42.926915,0,668,-81.235957,,,,,Ernest & Scotchmere Cres (N Leg) SB - #668,0,1656,
42.926654,0,669,-81.2358,,,,,Ernest & Scotchmere Cres (S Leg) NB - #669,0,1657,
42.936425,0,666,-81.237508,,,,,Ernest & Muriel Cres (South Leg) NB - #666,0,1654,
42.937018,0,667,-81.238241,,,,,Ernest & Pauline Cres (North Leg) SB - #667,0,1655,
42.965432,0,639,-81.257158,,,,,Edward & Langarth SB - #639,0,1631,
42.970779,0,641,-81.254355,,,,,Elmwood & Cathcart WB - #641,0,1633,
43.012055,0,120,-81.321538,,,,,Aldersbrook & Blackacres FS NB - #120,0,2838,
42.988608,0,,-81.243706,,,,,DUFFERIN &WATERLOO - #,0,2836,
43.009201,0,265,-81.308898,,,,,Blackacres & Homestead WB - #265,0,1348,
42.970934,0,643,-81.252723,,,,,Elmwood & Wortley WB - #643,0,1635,
42.99116,0,371,-81.277868,,,,,Cherryhill & Cherryhill Blvd WB - #371,0,1436,
42.991334,0,372,-81.277047,,,,,Cherryhill & Cherrhill Circle NS EB - #372,0,1437,
43.005516,0,368,-81.24244,,,,,Cheapside & William EB - #368,0,1434,
43.005588,0,369,-81.242502,,,,,Cheapside & William WB - #369,0,1435,
43.002182,0,366,-81.254448,,,,,Cheapside & Wellington EB - #366,0,1432,
43.002451,0,367,-81.253889,,,,,Cheapside & Wellington WB - #367,0,1433,
43.002959,0,364,-81.251627,,,,,Cheapside & Waterloo EB - #364,0,1430,
43.003196,0,365,-81.251129,,,,,Cheapside & Waterloo WB - #365,0,1431,
42.963681,0,645,-81.270068,,,,,Emery & Highwood Ave WB - #645,0,1637,
42.991687,0,373,-81.276465,,,,,Cherryhill & Cherryhill Circle NS 2 WB - #373,0,1438,
42.99177,0,374,-81.275942,,,,,Cherryhill & Cherrhill Circle FS EB - #374,0,1439,
43.009687,0,266,-81.306739,,,,,Blackacres & Homestead FS EB - #266,0,1349,
42.98368,0,1443,-81.254207,,,,,Queens & Ridout St WB - #1443,0,458,
42.988455,0,2415,-81.299991,,,,,Beaverbrook & Capulet WB - #2415,0,459,
43.011954,0,261,-81.311945,,,,,Blackacres & Edgehill Road EB - #261,0,1344,
43.012802,0,263,-81.315024,,,,,Blackacres & Edgehill Cres N Leg WB - #263,0,1345,
43.012332,0,262,-81.31207,,,,,Blackacres & Edgehill Road S Leg WB - #262,0,1346,
43.009024,0,264,-81.309342,,,,,Blackacres & Homestead NS EB - #264,0,1347,
42.969386,0,2502,-81.232712,,,,,Bond & Beverley WB - #2502,0,3702,
42.937318,0,2129,-81.281179,,,,,Wonderland & Southdale SB - #2129,0,3703,
42.911671,0,2518,-81.291879,,,,,MAIN AT CAMPBELL ST EB - #2518,0,3707,
42.961925,0,477,-81.197476,,,,,Commissioners & Pondmills FS EB - #477,0,1502,
42.9615,0,478,-81.20151,,,,,Commissioners & Pondmills FS WB - #478,0,1503,
42.98351,0,1471,-81.249572,,,,,Richmond & Dundas St FS 2 SB - #1471,0,654,
42.961819,0,476,-81.199216,,,,,Commissioners & Pondmills NS WB - #476,0,1501,
42.955838,0,480,-81.318653,,,,,Commissioners & Springbank WB - #480,0,1506,
42.958611,0,481,-81.328577,,,,,Commissioners & Springbank Prk WB - #481,0,1507,
42.958514,0,2426,-81.22334,,,,,Commissioners & Western Counties Rd - #2426,0,1504,
42.958444,0,479,-81.328319,,,,,Commissioners & Springbank Prk EB - #479,0,1505,
42.956481,0,483,-81.268808,,,,,Commissioners & Viscount EB - #483,0,1508,
42.958442,0,2217,-81.218679,,,,,Commissioners & Western Counties EB - #2217,0,1509,
42.979097,0,1967,-81.242541,,,,,Wellington & Simcoe St SB - #1967,0,658,
42.977378,0,1945,-81.241642,,,,,Wellington & Grey St SB - #1945,0,659,
42.996373,0,2677,-81.164955,,,,,Wexford & Admiral NB - #2677,0,3881,
42.994339,0,2635,-81.165684,,,,,Admiral & Trafalgar NB - #2635,0,3880,
42.989811,0,1463,-81.250803,,,,,Richmond & Central Ave SB - #1463,0,2126,
42.97138,0,2649,-81.246221,,,,,Grand & Bellevue EB - #2649,0,3889,
42.979296,0,1479,-81.247519,,,,,Richmond & Horton St SB - #1479,0,2129,
42.979378,0,1478,-81.247439,,,,,Richmond & Horton St FS NB - #1478,0,2128,
43.022057,0,1623,-81.204205,,,,,Sandford & Huron St NB - #1623,0,322,
43.030903,0,2234,-81.220945,,,,,Highbury & Kilally Rd NB - #2234,0,323,
42.975906,0,2293,-81.262288,,,,,Wharncliffe & Horton St SB - #2293,0,326,
43.031662,0,915,-81.221536,,,,,Highbury & Kilally Rd SB - #915,0,324,
43.021789,0,2273,-81.204157,,,,,Sandford & Huron FS SB - #2273,0,325,
42.94795,0,944,-81.255727,,,,,Highview & Ferndale Ave SB - #944,0,328,
42.942477,0,604,-81.243882,,,,,Dundalk & Southdale Road SB - #604,0,329,
42.987559,0,1802,-81.18716,,,,,Trafalgar & Thorne Ave WB - #1802,0,2330,
42.989143,0,1803,-81.181387,,,,,Trafalgar & Vancouver St EB - #1803,0,2331,
42.989093,0,1804,-81.181802,,,,,Trafalgar & Vancouver St WB - #1804,0,2332,
42.968623,0,1806,-81.230171,,,,,Trevithen & Raywood NB - #1806,0,2335,
42.982252,0,1810,-81.183322,,,,,Tweedsmuir & Court Lane E Leg  WB - #1810,0,2336,
42.982365,0,1811,-81.185867,,,,,Tweedsmuir & Court Lane W Leg WB - #1811,0,2337,
42.982862,0,1813,-81.191508,,,,,Tweedsmuir & Hale  St WB - #1813,0,2338,
42.983139,0,1814,-81.189357,,,,,Tweedsmuir & Jasper Cr WB - #1814,0,2339,
43.016618,0,2513,-81.317236,,,,,Fanshawe Park at FoxWood WB - #2513,0,3715,
43.019831,0,2505,-81.306159,,,,,517 Fanshawe Park Road - #2505,0,3714,
42.932687,0,2526,-81.280071,,,,,Wonderland at Bradley SB - #2526,0,3717,
43.02166,0,2514,-81.299195,,,,,Fanshawe Park at Pinnacle EB - #2514,0,3716,
43.01512,0,2510,-81.321545,,,,,Fanshawe & Aldersbrook EB - #2510,0,3711,
43.015051,0,2511,-81.322581,,,,,Fanshawe & Aldersbrook WB - #2511,0,3710,
43.023108,0,2512,-81.294879,,,,,Fanshawe Park at Derwent WB - #2512,0,3713,
43.021573,0,2515,-81.300172,,,,,Fanshawe Park & Pinnacle WB - #2515,0,3712,
42.920595,0,2521,-81.281095,,,,,Wharncliffe at Bostwick SB - #2521,0,3719,
42.922946,0,2524,-81.278305,,,,,Wharncliffe at Wonderland SB - #2524,0,3718,
42.942644,0,2039,-81.257594,,,,,Wharncliffe & Glendale Ave SB - #2039,0,2488,
42.97506,0,2037,-81.262093,,,,,Wharncliffe & Euclid Ave NB - #2037,0,2486,
42.962708,0,2038,-81.261359,,,,,Wharncliffe & Euston Rd SB - #2038,0,2487,
42.990227,0,2035,-81.263788,,,,,Wharncliffe & Empress Ave NB - #2035,0,2484,
42.971658,0,2036,-81.262003,,,,,Wharncliffe & Erie Ave SB - #2036,0,2485,
42.964157,0,2033,-81.261322,,,,,Wharncliffe & Emery St NB - #2033,0,2482,
42.963811,0,2034,-81.261446,,,,,Wharncliffe & Emery St SB - #2034,0,2483,
42.969997,0,2031,-81.261765,,,,,Wharncliffe & Elmwood Ave NB - #2031,0,2480,
42.970327,0,2032,-81.261912,,,,,Wharncliffe & Elmwood Ave SB - #2032,0,2481,
42.976705,0,2276,-81.235546,,,,,South St Hospital - #2276,0,2249,
43.026155,0,1663,-81.192299,,,,,Sorrel & Huron NB - #1663,0,2244,
43.024095,0,1665,-81.192746,,,,,Sorrel & Perth Ave NB - #1665,0,2246,
42.964424,0,1670,-81.276425,,,,,Southcrest & Beachwood EB - #1670,0,2247,
42.925398,0,1659,-81.225474,,,,,Sholto & Exeter SB - #1659,0,2240,
42.926831,0,1660,-81.226266,,,,,Sholto & Jalna Blvd NB - #1660,0,2241,
42.92664,0,1661,-81.226058,,,,,Sholto & Jalna Blvd SB - #1661,0,2242,
43.041714,0,1662,-81.27174,,,,,Skyline & Chambers EB - #1662,0,2243,
42.953053,0,1418,-81.196603,,,,,Pond Mills & Millridge Rd. FS 1 SB - #1418,0,995,
42.972637,0,2013,-81.261932,,,,,Wharncliffe & Askin St NB - #2013,0,2465,
42.988129,0,2014,-81.262911,,,,,Wharncliffe & Barrington Ave NB - #2014,0,2466,
42.950517,0,1416,-81.196272,,,,,Pond Mills & Millridge Rd. FS 2 SB - #1416,0,996,
42.966196,0,2008,-81.225409,,,,,Westminster & Whetter Ave SB - #2008,0,2460,
42.996197,0,2009,-81.164915,,,,,Wexford & Admiral Dr. SB - #2009,0,2461,
42.997986,0,2010,-81.165923,,,,,Wexford & Royal Cr NB - #2010,0,2462,
42.997897,0,2011,-81.165965,,,,,Wexford & Royal Cr SB - #2011,0,2463,
42.965957,0,2019,-81.261456,,,,,Wharncliffe & Briscoe St NB - #2019,0,2468,
42.965573,0,2020,-81.261572,,,,,Wharncliffe & Briscoe St SB - #2020,0,2469,
42.960701,0,843,-81.334838,,,,,Halls Mills & Commissioners SB - #843,0,122,
42.960072,0,277,-81.332683,,,,,Boler & Commissioners FS NB - #277,0,123,
42.976327,0,1604,-81.289551,,,,,Riverside & Wonderland Rd EB - #1604,0,125,
42.990499,0,1391,-81.272074,,,,,Platts Lane & Oxford St NB - #1391,0,127,
43.001883,0,1647,-81.277365,,,,,Sarnia & Western Rd WB - #1647,0,128,
42.995449,0,1649,-81.299448,,,,,Sarnia & Wonderland WB - #1649,0,129,
42.956614,0,1376,-81.22348,,,,,Parkwood Hosp & Western Counties Rd WB - #1376,0,2068,
43.020498,0,1314,-81.166915,,,,,Oxford & Industrial Rd WB - #1314,0,2060,
43.020401,0,1315,-81.16688,,,,,Oxford & Industrial Rd NS EB - #1315,0,2061,
43.004494,0,1348,-81.222268,,,,,Oxford & Strand St EB - #1348,0,2062,
43.013802,0,1353,-81.190523,,,,,Oxford & Third St WB - #1353,0,2063,
43.016019,0,1371,-81.15896,,,,,Page & Vetrans Memorial Parkway WB - #1371,0,2064,
43.033229,0,2474,-81.239718,,,,,Glenora & McGill FS WB - #2474,0,3579,
43.037596,0,2480,-81.235227,,,,,McLean & Maxwell FS WB - #2480,0,3578,
42.975214,0,2458,-81.305469,,,,,Valetta & Deerpark W Leg EB - #2458,0,3575,
43.040448,0,2470,-81.235822,,,,,Fanshawe & McLean NS EB - #2470,0,3571,
43.039771,0,2469,-81.2382,,,,,Fanshawe & Glenora FS EB - #2469,0,3570,
42.96102,0,2486,-81.174192,,,,,Reardon & Chelton NS WB - #2486,0,3572,
42.933053,0,657,-81.236551,,,,,Ernest & Conway Dr SB - #657,0,1645,
42.932709,0,656,-81.23643,,,,,Ernest & Conway NB - #656,0,1644,
42.929488,0,659,-81.23594,,,,,Ernest & Fennel Cres (South Leg) NB - #659,0,1647,
42.939341,0,658,-81.238539,,,,,Ernest & Elvira Cres SB - #658,0,1646,
42.963768,0,650,-81.26765,,,,,Emery & Winston WB - #650,0,1640,
42.934612,0,655,-81.236504,,,,,Ernest & Bradley Ave SB - #655,0,1643,
42.934816,0,654,-81.236399,,,,,Ernest & Bradley Ave NB - #654,0,1642,
42.92856,0,661,-81.236307,,,,,Ernest & Finch Cres (South Leg) SB - #661,0,1649,
42.930285,0,660,-81.235775,,,,,Ernest & Fennel Cres (North Leg) SB - #660,0,1648,
42.942271,0,818,-81.333418,,,,,Griffith & Robinwood Cr W Leg EB - #818,0,1742,
42.945662,0,819,-81.327138,,,,,Griffith & Somerset Rd NB - #819,0,1743,
43.004337,0,34,-81.239172,,,,,Adelaide & Grosvenor St NB - #34,0,604,
42.971883,0,29,-81.224342,,,,,Adelaide & Edna St SB - #29,0,601,
43.008478,0,355,-81.23179,,,,,Cheapside & Gammage WB - #355,0,1421,
42.952078,0,1887,-81.26806,,,,,Viscount & Tavistock Rd 2 SB - #1887,0,2406,
43.004728,0,357,-81.24527,,,,,Cheapside & Maitland EB - #357,0,1423,
43.011258,0,356,-81.222226,,,,,Cheapside & Lyman WB - #356,0,1422,
43.011324,0,359,-81.221707,,,,,Cheapside & McNay EB - #359,0,1425,
43.004599,0,358,-81.246139,,,,,Cheapside & Maitland WB - #358,0,1424,
43.009301,0,361,-81.228968,,,,,Cheapside & Sterling St. WB - #361,0,1427,
42.944876,0,1888,-81.299283,,,,,Viscount & Village Green Ave WB - #1888,0,2407,
43.007133,0,363,-81.236426,,,,,Cheapside & Taylor WB - #363,0,1429,
43.006909,0,362,-81.236842,,,,,Cheapside & Taylor EB - #362,0,1428,
42.953716,0,1885,-81.268278,,,,,Viscount & Tavistock Rd NB - #1885,0,2404,
42.944488,0,1667,-81.215236,,,,,Southdale & Adelaide St. WB - #1667,0,731,
42.944983,0,1688,-81.209328,,,,,Southdale & Millbank Dr E Leg FS WB - #1688,0,730,
42.943796,0,1704,-81.224327,,,,,Southdale & Wellington  WB - #1704,0,733,
42.962989,0,1583,-81.326031,,,,,Riverside & Hartson Rd W Leg EB - #1583,0,938,
42.944743,0,1965,-81.22623,,,,,Wellington & Southdale Rd FS NB - #1965,0,735,
42.946286,0,1934,-81.227132,,,,,Wellington & Creston Ave FS 1 NB - #1934,0,734,
42.952993,0,1977,-81.228905,,,,,Wellington & Wilkins St FS NB - #1977,0,737,
42.951107,0,1975,-81.228451,,,,,Wellington & Wilkins St NS NB - #1975,0,736,
42.958872,0,1931,-81.230199,,,,,Wellington & Commissioners Rd NB - #1931,0,739,
42.947553,0,1883,-81.280877,,,,,Viscount & Pine Valley Dr EB - #1883,0,2402,
42.947528,0,1884,-81.283968,,,,,Viscount & Steeplechase Dr EB - #1884,0,2403,
42.949368,0,280,-81.330188,,,,,Boler & Wayne Road NB - #280,0,1359,
42.945802,0,279,-81.329332,,,,,Boler & Griffith NB - #279,0,1358,
42.947282,0,1881,-81.277836,,,,,Viscount & Piedmount Cres. EB - #1881,0,2400,
43.012477,0,271,-81.316858,,,,,Blackacres & Windingwoods WB - #271,0,1353,
43.012367,0,270,-81.316326,,,,,Blackacres & Winding Woods EB - #270,0,1352,
43.012349,0,269,-81.319429,,,,,Blackacres & Winding Way WB - #269,0,1351,
42.94735,0,1882,-81.278068,,,,,Viscount & Piedmount WB - #1882,0,2401,
43.042123,0,274,-81.272748,,,,,Bluebell  & Sunningdale Rd SB - #274,0,1357,
43.042783,0,2309,-81.273013,,,,,Bluebell  & Sunningdale Rd NB - #2309,0,1356,
43.010884,0,273,-81.311322,,,,,Blackacres & Yardley Woods WB - #273,0,1355,
43.010249,0,272,-81.311101,,,,,Blackacres & Yardley Woods EB - #272,0,1354,
42.97462,0,1537,-81.249896,,,,,Ridout & Craig St NB - #1537,0,2158,
42.974335,0,1538,-81.249832,,,,,Ridout & Craig St SB - #1538,0,2159,
42.95929,0,512,-81.192176,,,,,Deveron & Banbury Rd SB - #512,0,1519,
42.960526,0,511,-81.194348,,,,,Deveron & Banbury Cres N Leg NB - #511,0,1518,
42.939352,0,502,-81.288487,,,,,Dalhousie & Dalhousie Cr EB - #502,0,1515,
42.942093,0,504,-81.288592,,,,,Dalhousie & McMaster NS 2 NB - #504,0,1517,
42.947195,0,1890,-81.288537,,,,,Viscount & Wonderland Rd NS WB - #1890,0,2409,
42.947556,0,488,-81.303783,,,,,Cranbrook & Hillsmount NB - #488,0,1511,
42.950876,0,489,-81.302641,,,,,Cranbrook & Salem NB - #489,0,1512,
42.994743,0,1298,-81.255576,,,,,Oxford & St. George St EB - #1298,0,959,
43.017475,0,1036,-81.162831,,,,,Industrial & Page St FS 2 NB - #1036,0,1896,
42.918905,0,1608,-81.208892,,,,,Roxburgh & Wellington Road WB - #1608,0,356,
42.927417,0,2075,-81.201219,,,,,Wilton Grove & Sise Rd FS WB - #2075,0,355,
42.930474,0,988,-81.183804,,,,,Hubrey & Enterprise Dr. S SB - #988,0,353,
42.934002,0,1229,-81.211509,,,,,Newbold & Bessemer EB - #1229,0,350,
42.990638,0,2279,-81.175968,,,,,Trafalgar & Falcon St EB - #2279,0,2323,
42.989922,0,1794,-81.178952,,,,,Trafalgar & Dawn Dr WB - #1794,0,2322,
42.992076,0,1793,-81.171269,,,,,Trafalgar & Clarke Rd FS WB - #1793,0,2321,
42.992585,0,1792,-81.169541,,,,,Trafalgar & Clarke Rd NS WB - #1792,0,2320,
42.986995,0,1799,-81.189037,,,,,Trafalgar & Stevenson Ave EB - #1799,0,2327,
42.993244,0,1798,-81.167201,,,,,Trafalgar & Marconi Blvd  WB - #1798,0,2324,
42.987655,0,1801,-81.18663,,,,,Trafalgar & Thorne Ave EB - #1801,0,2329,
42.986732,0,1800,-81.190088,,,,,Trafalgar & Stevenson Ave WB - #1800,0,2328,
42.983542,0,926,-81.197502,,,,,Highbury & Trafalgar St. NB - #926,0,1113,
42.987526,0,2165,-81.222993,,,,,York & Rectory St EB - #2165,0,289,
43.006102,0,345,-81.240697,,,,,Cheapside & Adelaide FS WB - #345,0,288,
42.979895,0,921,-81.195647,,,,,Highbury & Magee St NB - #921,0,1112,
42.988336,0,2218,-81.244135,,,,,Dufferin & Waterloo St WB - #2218,0,5,
43.006237,0,344,-81.239049,,,,,Cheapside & Adelaide EB - #344,0,283,
43.027589,0,1245,-81.192298,,,,,Oakville & Huron St NB - #1245,0,285,
43.019962,0,1009,-81.214864,,,,,Huron & Highbury Ave FS EB - #1009,0,284,
43.020129,0,1008,-81.215049,,,,,Huron & Highbury NS WB - #1008,0,287,
43.025446,0,1140,-81.281591,,,,,Masonville Terminal Stop #1 - #1140,0,1996_merged_921650,
43.008224,0,1173,-81.270543,,,,,UWO-Middlesex Dr & Perth Dr NB - #1173,0,262,
42.983983,0,1468,-81.249808,,,,,Richmond & Dundas St FS NB - #1468,0,261,
42.96904,0,1032,-81.316032,,,,,Hyde Park & Valetta St. NB - #1032,0,267,
43.002458,0,559,-81.183767,,,,,Dundas & Edmonton St EB - #559,0,1561,
42.977515,0,1306,-81.314731,,,,,Oxford & Guildwood Gate WB - #1306,0,269,
42.975275,0,1312,-81.322369,,,,,Oxford & Hyde Park Rd WB - #1312,0,268,
42.992935,0,560,-81.217246,,,,,Dundas & Egerton St EB - #560,0,1562,
42.979274,0,2050,-81.262382,,,,,Wharncliffe & The Ridgeway NB - #2050,0,2499,
42.98908,0,2049,-81.263431,,,,,Wharncliffe & Paul St SB - #2049,0,2498,
42.975361,0,1030,-81.320346,,,,,Hyde Park & Oxford St SB - #1030,0,1893,
42.961105,0,2040,-81.261114,,,,,Wharncliffe & Lambeth Ave NB - #2040,0,2490,
42.994523,0,2042,-81.266276,,,,,Wharncliffe & McDonald Ave SB - #2042,0,2493,
42.986463,0,2041,-81.263031,,,,,Wharncliffe & Lexington Ave SB - #2041,0,2492,
42.984451,0,2044,-81.262743,,,,,Wharncliffe & Mount Pleasant Ave NB - #2044,0,2495,
42.986267,0,2043,-81.262822,,,,,Wharncliffe & Moir St NB - #2043,0,2494,
42.991119,0,2048,-81.264552,,,,,Wharncliffe & Palmer St SB - #2048,0,2497,
42.985051,0,2045,-81.262977,,,,,Wharncliffe & Mt. Pleasant Ave SB - #2045,0,2496,
42.996341,0,1718,-81.143305,,,,,Sovereign & Neptune NS 1 SB - #1718,0,2259,
43.002321,0,1717,-81.146558,,,,,Sovereign & Belleisle Crt SB - #1717,0,2258,
43.002839,0,1716,-81.146751,,,,,Sovereign & Belleisle Crt NB - #1716,0,2257,
42.975453,0,1705,-81.24009,,,,,South & Wellington St FS 1 EB - #1705,0,2255,
42.976051,0,1702,-81.23789,,,,,South & Waterloo St EB - #1702,0,2254,
42.964458,0,2220,-81.275884,,,,,Emery & Ridgewood WB - #2220,0,2253,
42.972654,0,2028,-81.262071,,,,,Wharncliffe & Cove Rd SB - #2028,0,2477,
42.957599,0,2027,-81.260802,,,,,Wharncliffe & Commissioners Rd SB - #2027,0,2476,
42.957951,0,2026,-81.260699,,,,,Wharncliffe & Commissioners Rd NB - #2026,0,2475,
42.968649,0,2025,-81.261782,,,,,Wharncliffe & Cliftonvale Ave SB - #2025,0,2474,
42.961302,0,2024,-81.261271,,,,,Wharncliffe & Center St SB - #2024,0,2473,
42.974058,0,2023,-81.262197,,,,,Wharncliffe & Byron Ave SB - #2023,0,2472,
42.973704,0,2022,-81.262004,,,,,Wharncliffe & Byron Ave NB - #2022,0,2471,
42.971594,0,2021,-81.261866,,,,,Wharncliffe & Bruce St NB - #2021,0,2470,
43.005934,0,923,-81.208378,,,,,Highbury & Oxford FS 2 SB - #923,0,982,
43.002418,0,920,-81.206675,,,,,Highbury opp RMHC (LPH)Access Rd SB - #920,0,983,
43.013549,0,899,-81.212226,,,,,Highbury & Cheapside St SB - #899,0,980,
43.012378,0,917,-81.211623,,,,,Highbury & Landor St SB - #917,0,981,
42.992247,0,902,-81.201778,,,,,Highbury & Eastman Ave SB - #902,0,986,
42.991028,0,929,-81.201216,,,,,Highbury & Wilton Ave SB - #929,0,987,
42.968646,0,2030,-81.261681,,,,,Wharncliffe & Duchess Ave NB - #2030,0,2479,
42.962375,0,2029,-81.2612,,,,,Wharncliffe & Devonshire Ave NB - #2029,0,2478,
42.962169,0,2193,-81.22606,,,,,Baseline & Fairview - #2193,0,114,
42.989035,0,309,-81.19957,,,,,Brydges & Highbury Ave 1 EB - #309,0,117,
42.956426,0,1373,-81.22502,,,,,Parkwood Hosp & Main Entrance WB - #1373,0,116,
42.994909,0,1495,-81.252915,,,,,Richmond & Oxford St SB - #1495,0,111,
43.001785,0,1465,-81.25651,,,,,Richmond & Cheapside St SB - #1465,0,110,
42.9716,0,936,-81.238813,,,,,High & Grand Ave SB - #936,0,113,
42.978596,0,1589,-81.283087,,,,,Riverside & Old Riverside Dr EB - #1589,0,2199,
42.983981,0,2158,-81.238888,,,,,York & Colborne St WB - #2158,0,119,
42.989103,0,308,-81.199763,,,,,Brydges & Highbury Ave WB - #308,0,118,
42.991384,0,1390,-81.272677,,,,,Platts Lane & Cherryhill Pl SB - #1390,0,2079,
42.991765,0,1389,-81.272751,,,,,Platts Lane & Cherryhill Pl NB - #1389,0,2078,
42.990257,0,2417,-81.293584,,,,,Beaverbrook & Horizon EB - #2417,0,3501,
42.990798,0,2418,-81.29173,,,,,Beaverbrook & Proudfoot EB - #2418,0,3502,
42.989486,0,1425,-81.290155,,,,,Proudfoot & Beaverbrook SB - #1425,0,3503,
42.961601,0,2423,-81.224164,,,,,Victoria Hospital & Zone E WB - #2423,0,3504,
42.947502,0,2436,-81.291672,,,,,Westmount Mall Stop 4 - #2436,0,3505,
42.947277,0,2437,-81.292552,,,,,Westmount Mall Stop 5 - #2437,0,3506,
42.947352,0,2438,-81.291827,,,,,Westmount Mall Stop 6 - #2438,0,3507,
43.00902,0,1132,-81.248152,,,,,Maitland & Regent St SB - #1132,0,1986,
42.982666,0,1133,-81.181256,,,,,Manitoulin & Tweedsmuir Ave NB - #1133,0,1987,
42.96804,0,640,-81.257575,,,,,Edward & Tecumseh SB - #640,0,1632,
42.963916,0,1131,-81.264329,,,,,MacKay & Emery St. SB - #1131,0,1985,
42.998431,0,1126,-81.307561,,,,,Limberlost & Lawson Rd NB - #1126,0,1982,
42.998505,0,1127,-81.307685,,,,,Limberlost & Lawson Rd SB - #1127,0,1983,
43.005037,0,1124,-81.309399,,,,,Limberlost & Gainsborough Rd NB - #1124,0,1980,
43.004912,0,1125,-81.309452,,,,,Limberlost & Gainsborough Rd SB - #1125,0,1981,
42.963561,0,646,-81.263574,,,,,Emery & Paddington Ave EB - #646,0,1638,
42.963719,0,649,-81.266921,,,,,Emery & Winston NS EB - #649,0,1639,
42.992506,0,72,-81.233465,,,,,Adelaide & Princess SB - #72,0,1188,
43.010802,0,74,-81.242321,,,,,Adelaide & Regent St NB - #74,0,1189,
42.99887,0,70,-81.236488,,,,,Adelaide & Piccadilly St NB - #70,0,1186,
42.999014,0,71,-81.236686,,,,,Adelaide & Piccadilly St SB - #71,0,1187,
43.000449,0,68,-81.237393,,,,,Adelaide & Oxford St SB - #68,0,1184,
42.996487,0,69,-81.235428,,,,,Adelaide & Pall Mall St SB - #69,0,1185,
42.939001,0,65,-81.2102,,,,,Adelaide & Osgoode Dr - SW Leg SB - #65,0,1182,
43.00054,0,67,-81.23728,,,,,Adelaide & Oxford St NB - #67,0,1183,
42.937296,0,63,-81.20903,,,,,Adelaide & Osgoode Dr - SE Leg SB - #63,0,1180,
42.937249,0,64,-81.208782,,,,,Adelaide & Osgoode Dr - SE Leg NB - #64,0,1181,
42.949744,0,1194,-81.210611,,,,,Millbank & Shaftsbury Ave W SB - #1194,0,726,
42.9487,0,1184,-81.211287,,,,,Millbank & Ebury Cres (N Leg) SB - #1184,0,727,
42.950273,0,1191,-81.205551,,,,,Millbank & Shaftsbury Ave E NB - #1191,0,724,
42.952118,0,1187,-81.20764,,,,,Millbank & Parliament Cr E Leg WB - #1187,0,725,
42.944011,0,1182,-81.204454,,,,,Millbank & Dudley Cres (N Leg) SB - #1182,0,722,
42.945846,0,1185,-81.204681,,,,,Millbank & Harrow Crt NB - #1185,0,723,
42.940822,0,1175,-81.200906,,,,,Millbank & Bexhill Drive (N Leg) NB - #1175,0,720,
42.942167,0,1179,-81.202469,,,,,Millbank & Bridington Road NB - #1179,0,721,
42.94933,0,820,-81.328357,,,,,Griffith & Wayne Rd NB - #820,0,1744,
42.951637,0,821,-81.327343,,,,,Griffith & Whisperwood Ave NB - #821,0,1745,
42.944539,0,822,-81.33588,,,,,Griffith & Widdicomb Cr SB - #822,0,1746,
42.949289,0,814,-81.338973,,,,,Griffith & Fairlane Ave SB - #814,0,1740,
42.948552,0,815,-81.33801,,,,,Griffith & Griffith Gate SB - #815,0,1741,
42.946075,0,1183,-81.211972,,,,,Millbank & Ebury Cres (S Leg) SB - #1183,0,728,
42.94561,0,1190,-81.204729,,,,,Millbank & Southdale Road NS 1 SB - #1190,0,729,
43.014658,0,47,-81.244642,,,,,Adelaide & Kipps Lane- FS 2 SB - #47,0,1165,
42.960884,0,48,-81.216852,,,,,Adelaide & Leathorne St NS NB - #48,0,1166,
42.961015,0,49,-81.217334,,,,,Adelaide & Leathorne SB - #49,0,1167,
43.015827,0,42,-81.245032,,,,,Adelaide & Huron St 3 NB - #42,0,1160,
43.018099,0,43,-81.246148,,,,,Adelaide & Kipps Lane FS NB - #43,0,1161,
43.01775,0,44,-81.24618,,,,,Adelaide & Kipps Lane NS SB - #44,0,1162,
42.962904,0,50,-81.220032,,,,,Adelaide & Leathorne St FS 1 NB - #50,0,1168,
42.963991,0,52,-81.220618,,,,,Adelaide & Leathorne St FS 2 NB - #52,0,1169,
43.010172,0,1222,-81.273174,,,,,UWO-Elgin Dr & Middlesex Dr WB - #1222,0,48,
42.983422,0,1469,-81.249632,,,,,Richmond & Dundas St FS 1 SB - #1469,0,49,
43.006041,0,141,-81.274944,,,,,UWO-Lambton Dr & Oxford Drive EB - #141,0,46,
42.983051,0,1601,-81.263566,,,,,Riverside & Wharncliffe FS WB - #1601,0,44,
42.992239,0,2046,-81.264852,,,,,Wharncliffe & Oxford St NB - #2046,0,45,
42.983811,0,599,-81.249273,,,,,Dundas & Richmond St WB - #599,0,42,
42.982949,0,609,-81.252259,,,,,Dundas & Talbot St EB - #609,0,43,
42.996795,0,578,-81.20435,,,,,Dundas & Highbury Ave WB - #578,0,40,
42.988694,0,538,-81.232111,,,,,Dundas & Adelaide St WB - #538,0,41,
42.999356,0,566,-81.194651,,,,,Dundas & First St EB - #566,0,1568,
42.999659,0,567,-81.194212,,,,,Dundas & First St NS WB - #567,0,1569,
42.960962,0,199,-81.279703,,,,,Base Line & Robin Rd NB - #199,0,1299,
42.961362,0,192,-81.235476,,,,,Base Line & High St EB - #192,0,1292,
42.961332,0,193,-81.236728,,,,,Base Line & High St WB - #193,0,1293,
42.962004,0,191,-81.22901,,,,,Base Line & Fairview Ave FS 2 WB - #191,0,1290,
42.993006,0,561,-81.217444,,,,,Dundas & Egerton St WB - #561,0,1563,
42.959013,0,196,-81.264059,,,,,Base Line & McGregor EB - #196,0,1296,
42.994701,0,2219,-81.211527,,,,,Dundas & McCormick Blvd WB - #2219,0,1565,
42.989457,0,564,-81.229542,,,,,Dundas & Elizabeth WB - #564,0,1566,
42.961132,0,195,-81.239026,,,,,Base Line & McKeon Ave WB - #195,0,1295,
42.964982,0,767,-81.285133,,,,,Gardenwood & Southcrest Dr FS 2 NB - #767,0,1712,
42.964872,0,766,-81.285158,,,,,Gardenwood & Southcrest Dr SB - #766,0,1711,
42.993332,0,1910,-81.189834,,,,,Wavell & Kiwanis Park Dr EB - #1910,0,2425,
42.958824,0,,-81.228335,,,,,Victoria Hospital West Entrance NB - #,0,3698,
43.008394,0,88,-81.241297,,,,,Adelaide & Victoria St SB - #88,0,1201,
43.001114,0,768,-81.221698,,,,,Glasgow & Mornington Ave NB - #768,0,1714,
42.991759,0,290,-81.16023,,,,,Bow & Bancroft EB - #290,0,1366,
42.935125,0,2325,-81.216969,,,,,Bradley & Willow Dr FS 2 EB - #2325,0,1367,
42.969071,0,289,-81.234754,,,,,Bond & Wellington WB - #289,0,1365,
43.000429,0,284,-81.154082,,,,,Bonaventure & Napoleon Cr SB - #284,0,1362,
43.007415,0,285,-81.156086,,,,,Bonaventure & Simpson Cr (S Leg) SB - #285,0,1363,
43.004695,0,283,-81.154708,,,,,Bonaventure & Moreau Cr (S Leg) SB - #283,0,1361,
42.999174,0,1721,-81.144828,,,,,Sovereign & Trafalgar St. NB - #1721,0,478,
42.93429,0,295,-81.237428,,,,,Bradley & Ernest Ave EB - #295,0,1369,
42.977265,0,983,-81.256892,,,,,Horton & Wortley Rd EB - #983,0,1864,
